$GPGLL,0836.00162,N,07650.64010,E,075302.00,A,A*65
$GPRMC,075303.00,A,0836.01254,N,07650.63203,E,47.950,323.10,260424,,,A*59
$GPVTG,323.10,T,,M,47.950,N,88.803,K,A*3A
$GPGGA,075303.00,0836.01254,N,07650.63203,E,1,11,0.89,21.7,M,-95.0,M,,*45
$GPGSA,A,3,20,05,11,12,24,22,19,06,13,25,15,,1.46,0.89,1.16*0B
$GPGSV,4,1,15,05,62,181,30,06,11,032,21,11,39,005,23,12,47,334,28*76
$GPGSV,4,2,15,13,14,165,23,14,01,141,39,15,11,194,29,17,03,089,*72
$GPGSV,4,3,15,18,00,237,,19,16,070,37,20,74,064,38,22,24,136,32*72
$GPGSV,4,4,15,24,31,232,22,25,18,325,29,50,13,093,39*4C
$GPGLL,0836.01254,N,07650.63203,E,075303.00,A,A*64
$GPRMC,075304.00,A,0836.02358,N,07650.62386,E,48.888,323.42,260424,,,A*51
$GPVTG,323.42,T,,M,48.888,N,90.541,K,A*34
$GPGGA,075304.00,0836.02358,N,07650.62386,E,1,11,0.89,20.9,M,-95.0,M,,*4E
$GPGSA,A,3,20,05,11,12,24,22,19,06,13,25,15,,1.46,0.89,1.16*0B
$GPGSV,4,1,15,05,63,180,25,06,11,032,22,11,39,005,24,12,47,334,33*7C
$GPGSV,4,2,15,13,14,165,23,14,01,141,36,15,11,194,23,17,03,089,18*7E
$GPGSV,4,3,15,18,00,237,,19,16,070,38,20,74,064,37,22,24,136,35*75
$GPGSV,4,4,15,24,31,232,27,25,18,325,29,50,13,093,40*47
$GPGLL,0836.02358,N,07650.62386,E,075304.00,A,A*60
$GPRMC,075305.00,A,0836.03489,N,07650.61584,E,49.442,324.07,260424,,,A*50
$GPVTG,324.07,T,,M,49.442,N,91.567,K,A*3C
$GPGGA,075305.00,0836.03489,N,07650.61584,E,1,11,0.89,20.8,M,-95.0,M,,*43
$GPGSA,A,3,20,05,11,12,24,22,19,06,13,25,15,,1.46,0.89,1.16*0B
$GPGSV,4,1,15,05,63,180,31,06,10,032,20,11,39,005,24,12,47,334,33*7A
$GPGSV,4,2,15,13,14,165,24,14,01,141,35,15,11,194,30,17,03,089,*71
$GPGSV,4,3,15,18,00,237,,19,16,070,37,20,74,064,37,22,24,136,36*79
$GPGSV,4,4,15,24,31,232,23,25,18,325,26,50,13,093,37*4C
$GPGLL,0836.03489,N,07650.61584,E,075305.00,A,A*6C
$GPRMC,075306.00,A,0836.04640,N,07650.60775,E,50.269,324.90,260424,,,A*57
$GPVTG,324.90,T,,M,50.269,N,93.098,K,A*32
$GPGGA,075306.00,0836.04640,N,07650.60775,E,1,11,0.89,20.6,M,-95.0,M,,*43
$GPGSA,A,3,20,05,11,12,24,22,19,06,13,25,15,,1.46,0.89,1.16*0B
$GPGSV,4,1,15,05,63,180,26,06,10,032,19,11,39,005,26,12,47,334,32*75
$GPGSV,4,2,15,13,14,165,23,14,01,141,30,15,11,194,25,17,03,089,*77
$GPGSV,4,3,15,18,00,237,,19,16,070,31,20,74,064,37,22,24,136,32*7B
$GPGSV,4,4,15,24,31,232,22,25,18,325,24,50,13,093,36*4E
$GPGLL,0836.04640,N,07650.60775,E,075306.00,A,A*62
$GPRMC,075307.00,A,0836.05777,N,07650.59967,E,49.184,324.34,260424,,,A*53
$GPVTG,324.34,T,,M,49.184,N,91.089,K,A*36
$GPGGA,075307.00,0836.05777,N,07650.59967,E,1,11,0.79,20.0,M,-95.0,M,,*48
$GPGSA,A,3,20,05,11,12,24,22,19,06,13,25,15,,1.41,0.79,1.16*03
$GPGSV,4,1,15,05,63,180,32,06,10,032,19,11,39,005,26,12,47,334,32*70
$GPGSV,4,2,15,13,14,165,23,14,01,141,27,15,11,194,23,17,03,089,*77
$GPGSV,4,3,15,18,00,237,,19,16,070,32,20,74,064,37,22,24,136,28*73
$GPGSV,4,4,15,24,31,232,23,25,18,325,26,50,13,093,42*4E
$GPGLL,0836.05777,N,07650.59967,E,075307.00,A,A*60
$GPRMC,075308.00,A,0836.06944,N,07650.59197,E,50.284,326.57,260424,,,A*5A
$GPVTG,326.57,T,,M,50.284,N,93.126,K,A*3C
$GPGGA,075308.00,0836.06944,N,07650.59197,E,1,11,0.79,20.0,M,-95.0,M,,*4D
$GPGSA,A,3,20,05,11,12,24,22,19,06,13,25,15,,1.41,0.79,1.16*03
$GPGSV,4,1,15,05,63,180,31,06,10,032,19,11,39,005,27,12,47,334,27*76
$GPGSV,4,2,15,13,14,165,22,14,01,141,23,15,11,194,23,17,03,089,*72
$GPGSV,4,3,15,18,00,237,,19,16,070,28,20,74,064,38,22,24,136,36*78
$GPGSV,4,4,15,24,31,232,24,25,18,325,25,50,13,093,41*49
$GPGLL,0836.06944,N,07650.59197,E,075308.00,A,A*65
$GPRMC,075309.00,A,0836.08041,N,07650.58387,E,48.910,322.62,260424,,,A*56
$GPVTG,322.62,T,,M,48.910,N,90.582,K,A*38
$GPGGA,075309.00,0836.08041,N,07650.58387,E,1,11,0.79,20.9,M,-95.0,M,,*45
$GPGSA,A,3,20,05,11,12,24,22,19,06,13,25,15,,1.41,0.79,1.16*03
$GPGSV,4,1,15,05,63,180,25,06,10,032,20,11,39,005,27,12,47,334,27*79
$GPGSV,4,2,15,13,14,165,21,14,01,141,20,15,11,194,22,17,03,089,*73
$GPGSV,4,3,15,18,00,237,,19,16,070,28,20,74,064,38,22,24,136,38*76
$GPGSV,4,4,15,24,31,232,25,25,18,325,26,50,13,093,43*49
$GPGLL,0836.08041,N,07650.58387,E,075309.00,A,A*64
$GPRMC,075310.00,A,0836.09166,N,07650.57590,E,49.183,324.75,260424,,,A*57
$GPVTG,324.75,T,,M,49.183,N,91.088,K,A*35
$GPGGA,075310.00,0836.09166,N,07650.57590,E,1,11,0.79,20.5,M,-95.0,M,,*4B
$GPGSA,A,3,20,05,11,12,24,22,19,06,13,25,15,,1.41,0.79,1.16*03
$GPGSV,4,1,15,05,63,180,23,06,10,032,19,11,39,005,25,12,47,334,28*78
$GPGSV,4,2,15,13,14,165,21,14,01,141,15,15,11,194,23,17,03,089,*74
$GPGSV,4,3,15,18,00,237,,19,16,070,27,20,74,064,37,22,24,136,40*79
$GPGSV,4,4,15,24,31,232,25,25,18,325,25,50,13,093,36*48
$GPGLL,0836.09166,N,07650.57590,E,075310.00,A,A*66
$GPRMC,075311.00,A,0836.10299,N,07650.56812,E,49.098,325.50,260424,,,A*56
$GPVTG,325.50,T,,M,49.098,N,90.929,K,A*3B
$GPGGA,075311.00,0836.10299,N,07650.56812,E,1,10,0.95,20.6,M,-95.0,M,,*47
$GPGSA,A,3,20,05,11,12,24,22,19,13,25,15,,,1.59,0.95,1.27*0C
$GPGSV,4,1,15,05,63,180,25,06,10,032,18,11,39,005,31,12,47,334,31*72
$GPGSV,4,2,15,13,14,165,22,14,01,141,,15,11,194,23,17,03,089,*73
$GPGSV,4,3,15,18,00,237,,19,16,070,26,20,74,064,38,22,24,136,36*76
$GPGSV,4,4,15,24,31,232,23,25,18,325,22,50,13,093,32*4D
$GPGLL,0836.10299,N,07650.56812,E,075311.00,A,A*6A
$GPRMC,075312.00,A,0836.11426,N,07650.56025,E,48.726,324.64,260424,,,A*5F
$GPVTG,324.64,T,,M,48.726,N,90.241,K,A*3B
$GPGGA,075312.00,0836.11426,N,07650.56025,E,1,10,0.89,20.0,M,-95.0,M,,*40
$GPGSA,A,3,20,05,11,12,22,19,06,13,25,15,,,1.46,0.89,1.16*0D
$GPGSV,4,1,15,05,63,180,26,06,10,032,17,11,39,005,30,12,47,334,32*7C
$GPGSV,4,2,15,13,14,164,22,14,01,141,,15,11,194,21,17,03,089,*70
$GPGSV,4,3,15,18,00,237,,19,16,070,26,20,74,064,38,22,24,136,36*76
$GPGSV,4,4,15,24,31,232,,25,18,325,24,50,13,093,41*4E
$GPGLL,0836.11426,N,07650.56025,E,075312.00,A,A*66
$GPRMC,075313.00,A,0836.12566,N,07650.55273,E,48.483,326.24,260424,,,A*50
$GPVTG,326.24,T,,M,48.483,N,89.790,K,A*30
$GPGGA,075313.00,0836.12566,N,07650.55273,E,1,11,0.89,19.4,M,-95.0,M,,*4A
$GPGSA,A,3,20,05,11,12,24,22,19,06,13,25,15,,1.46,0.89,1.16*0B
$GPGSV,4,1,15,05,63,180,25,06,10,032,20,11,39,005,29,12,47,334,31*70
$GPGSV,4,2,15,13,14,164,23,14,01,141,,15,11,194,21,17,03,089,*71
$GPGSV,4,3,15,18,00,237,,19,16,070,34,20,74,064,38,22,24,136,27*75
$GPGSV,4,4,15,24,31,232,25,25,18,325,25,50,13,093,39*47
$GPGLL,0836.12566,N,07650.55273,E,075313.00,A,A*63
$GPRMC,075314.00,A,0836.13696,N,07650.54559,E,47.765,327.00,260424,,,A*57
$GPVTG,327.00,T,,M,47.765,N,88.460,K,A*3E
$GPGGA,075314.00,0836.13696,N,07650.54559,E,1,11,0.79,19.3,M,-95.0,M,,*46
$GPGSA,A,3,20,05,11,12,24,22,19,06,13,25,15,,1.41,0.79,1.16*03
$GPGSV,4,1,15,05,63,180,25,06,10,032,29,11,39,005,21,12,47,334,30*70
$GPGSV,4,2,15,13,14,164,23,14,01,141,,15,12,194,23,17,03,089,*70
$GPGSV,4,3,15,18,00,237,,19,16,070,37,20,74,064,37,22,24,136,29*77
$GPGSV,4,4,15,24,31,232,26,25,18,325,24,50,13,093,39*45
$GPGLL,0836.13696,N,07650.54559,E,075314.00,A,A*67
$GPRMC,075315.00,A,0836.14816,N,07650.53839,E,47.623,327.27,260424,,,A*5D
$GPVTG,327.27,T,,M,47.623,N,88.197,K,A*35
$GPGGA,075315.00,0836.14816,N,07650.53839,E,1,11,0.81,19.1,M,-95.0,M,,*4F
$GPGSA,A,3,20,05,11,12,24,22,19,06,13,25,15,,1.42,0.81,1.17*06
$GPGSV,4,1,15,05,63,180,24,06,10,032,23,11,39,005,27,12,47,334,30*7D
$GPGSV,4,2,15,13,14,164,25,14,01,141,,15,12,194,23,17,03,089,*76
$GPGSV,4,3,15,18,00,237,,19,16,070,31,20,74,064,37,22,24,136,33*7A
$GPGSV,4,4,15,24,31,232,28,25,18,325,24,50,13,093,41*44
$GPGLL,0836.14816,N,07650.53839,E,075315.00,A,A*6B
$GPRMC,075316.00,A,0836.15919,N,07650.53106,E,47.347,325.80,260424,,,A*5C
$GPVTG,325.80,T,,M,47.347,N,87.687,K,A*34
$GPGGA,075316.00,0836.15919,N,07650.53106,E,1,11,0.79,18.9,M,-95.0,M,,*48
$GPGSA,A,3,20,05,11,12,24,22,19,06,13,25,15,,1.41,0.79,1.16*03
$GPGSV,4,1,15,05,63,180,24,06,10,032,24,11,39,005,28,12,47,334,28*7C
$GPGSV,4,2,15,13,14,164,26,14,01,141,,15,12,194,23,17,03,090,*7D
$GPGSV,4,3,15,18,00,237,,19,16,070,32,20,74,064,37,22,24,136,34*7E
$GPGSV,4,4,15,24,31,232,27,25,18,325,24,50,13,093,40*4A
$GPGLL,0836.15919,N,07650.53106,E,075316.00,A,A*62
$GPRMC,075317.00,A,0836.17032,N,07650.52401,E,47.174,327.57,260424,,,A*56
$GPVTG,327.57,T,,M,47.174,N,87.365,K,A*37
$GPGGA,075317.00,0836.17032,N,07650.52401,E,1,11,0.79,19.0,M,-95.0,M,,*40
$GPGSA,A,3,20,05,11,12,24,22,19,06,13,25,15,,1.41,0.79,1.16*03
$GPGSV,4,1,15,05,63,180,25,06,10,032,32,11,39,005,28,12,47,334,28*7A
$GPGSV,4,2,15,13,14,164,24,14,01,141,,15,12,194,22,17,03,090,*7E
$GPGSV,4,3,15,18,00,238,,19,16,070,40,20,74,064,38,22,24,136,36*79
$GPGSV,4,4,15,24,31,232,25,25,18,325,22,50,13,093,39*40
$GPGLL,0836.17032,N,07650.52401,E,075317.00,A,A*62
$GPRMC,075318.00,A,0836.18138,N,07650.51696,E,46.690,327.04,260424,,,A*58
$GPVTG,327.04,T,,M,46.690,N,86.470,K,A*3F
$GPGGA,075318.00,0836.18138,N,07650.51696,E,1,10,0.93,19.0,M,-95.0,M,,*41
$GPGSA,A,3,20,05,11,12,24,22,19,06,13,15,,,1.58,0.93,1.27*0A
$GPGSV,4,1,15,05,63,180,31,06,10,032,27,11,39,005,28,12,47,334,28*7B
$GPGSV,4,2,15,13,14,164,22,14,01,141,,15,12,194,22,17,03,090,*78
$GPGSV,4,3,15,18,00,238,,19,16,070,39,20,74,064,39,22,24,136,37*77
$GPGSV,4,4,15,24,31,232,23,25,18,325,,50,13,093,40*48
$GPGLL,0836.18138,N,07650.51696,E,075318.00,A,A*66
$GPRMC,075319.00,A,0836.19236,N,07650.50992,E,46.286,327.51,260424,,,A*5C
$GPVTG,327.51,T,,M,46.286,N,85.721,K,A*38
$GPGGA,075319.00,0836.19236,N,07650.50992,E,1,11,0.93,19.0,M,-95.0,M,,*47
$GPGSA,A,3,20,05,11,12,24,22,19,06,13,25,15,,1.58,0.93,1.27*0D
$GPGSV,4,1,15,05,63,180,26,06,10,032,25,11,39,005,28,12,47,334,28*7F
$GPGSV,4,2,15,13,14,164,22,14,01,141,,15,12,194,21,17,03,090,*7B
$GPGSV,4,3,15,18,00,238,,19,16,070,37,20,74,062,36,22,24,136,37*70
$GPGSV,4,4,15,24,31,232,21,25,18,325,20,50,13,093,41*49
$GPGLL,0836.19236,N,07650.50992,E,075319.00,A,A*61
$GPRMC,075320.00,A,0836.20331,N,07650.50316,E,45.630,328.34,260424,,,A*5A
$GPVTG,328.34,T,,M,45.630,N,84.507,K,A*39
$GPGGA,075320.00,0836.20331,N,07650.50316,E,1,11,0.96,19.5,M,-95.0,M,,*47
$GPGSA,A,3,20,05,11,12,24,22,19,06,13,25,15,,1.62,0.96,1.30*07
$GPGSV,4,1,15,05,63,180,26,06,10,032,22,11,39,005,26,12,47,334,27*79
$GPGSV,4,2,15,13,14,164,21,14,01,141,,15,12,194,21,17,03,090,*78
$GPGSV,4,3,15,18,00,238,,19,16,070,30,20,74,062,37,22,24,136,39*78
$GPGSV,4,4,15,24,31,232,22,25,18,325,23,50,13,093,41*49
$GPGLL,0836.20331,N,07650.50316,E,075320.00,A,A*61
$GPRMC,075321.00,A,0836.21429,N,07650.49644,E,45.521,328.25,260424,,,A*5D
$GPVTG,328.25,T,,M,45.521,N,84.304,K,A*3F
$GPGGA,075321.00,0836.21429,N,07650.49644,E,1,10,0.82,19.6,M,-95.0,M,,*44
$GPGSA,A,3,20,05,11,12,24,22,19,06,25,15,,,1.45,0.82,1.20*04
$GPGSV,4,1,15,05,63,180,35,06,10,032,30,11,39,005,25,12,47,334,29*75
$GPGSV,4,2,15,13,14,164,,14,01,141,,15,12,194,20,17,03,090,*7A
$GPGSV,4,3,15,18,00,238,,19,16,070,30,20,74,062,38,22,23,136,25*7D
$GPGSV,4,4,15,24,31,232,21,25,18,325,22,50,13,093,41*4B
$GPGLL,0836.21429,N,07650.49644,E,075321.00,A,A*65
$GPRMC,075322.00,A,0836.22475,N,07650.48892,E,45.526,324.35,260424,,,A*5A
$GPVTG,324.35,T,,M,45.526,N,84.315,K,A*35
$GPGGA,075322.00,0836.22475,N,07650.48892,E,1,11,0.82,19.5,M,-95.0,M,,*4B
$GPGSA,A,3,20,05,11,12,24,22,19,06,13,25,15,,1.45,0.82,1.20*06
$GPGSV,4,1,15,05,63,180,32,06,10,032,22,11,39,005,25,12,47,334,29*71
$GPGSV,4,2,15,13,14,164,22,14,01,141,,15,12,194,21,17,03,090,*7B
$GPGSV,4,3,15,18,00,238,,19,16,070,40,20,74,062,40,22,23,136,37*76
$GPGSV,4,4,15,24,31,232,21,25,18,325,24,50,13,093,42*4E
$GPGLL,0836.22475,N,07650.48892,E,075322.00,A,A*68
$GPRMC,075323.00,A,0836.23513,N,07650.48147,E,45.286,324.21,260424,,,A*52
$GPVTG,324.21,T,,M,45.286,N,83.870,K,A*32
$GPGGA,075323.00,0836.23513,N,07650.48147,E,1,11,0.82,20.0,M,-95.0,M,,*44
$GPGSA,A,3,20,05,11,12,24,22,19,06,13,25,15,,1.45,0.82,1.20*06
$GPGSV,4,1,15,05,63,180,32,06,10,032,30,11,39,005,31,12,47,334,33*7C
$GPGSV,4,2,15,13,14,164,21,14,01,141,,15,12,194,19,17,03,090,24*75
$GPGSV,4,3,15,18,00,238,,19,16,070,33,20,74,062,39,22,23,136,35*7E
$GPGSV,4,4,15,24,31,232,19,25,18,325,23,50,13,093,42*42
$GPGLL,0836.23513,N,07650.48147,E,075323.00,A,A*68
$GPRMC,075324.00,A,0836.24517,N,07650.47352,E,44.932,321.22,260424,,,A*5C
$GPVTG,321.22,T,,M,44.932,N,83.213,K,A*3E
$GPGGA,075324.00,0836.24517,N,07650.47352,E,1,11,0.79,20.2,M,-95.0,M,,*4F
$GPGSA,A,3,20,05,11,12,24,22,19,06,13,25,15,,1.41,0.79,1.16*03
$GPGSV,4,1,15,05,63,180,31,06,10,032,24,11,39,005,37,12,47,334,32*7D
$GPGSV,4,2,15,13,14,164,22,14,01,141,,15,12,194,18,17,03,090,23*70
$GPGSV,4,3,15,18,00,238,,19,16,070,41,20,74,062,39,22,23,136,35*7B
$GPGSV,4,4,15,24,31,232,19,25,19,325,24,50,13,093,40*46
$GPGLL,0836.24517,N,07650.47352,E,075324.00,A,A*65
$GPRMC,075325.00,A,0836.25482,N,07650.46542,E,44.672,318.60,260424,,,A*50
$GPVTG,318.60,T,,M,44.672,N,82.733,K,A*3F
$GPGGA,075325.00,0836.25482,N,07650.46542,E,1,11,1.00,20.2,M,-95.0,M,,*4B
$GPGSA,A,3,20,05,11,12,24,22,19,06,13,25,15,,1.80,1.00,1.50*03
$GPGSV,4,1,15,05,63,180,31,06,10,032,18,11,39,005,39,12,47,334,32*7C
$GPGSV,4,2,15,13,14,164,21,14,01,141,,15,12,194,27,17,03,090,30*7D
$GPGSV,4,3,15,18,00,238,,19,16,070,32,20,74,062,39,22,23,136,31*7B
$GPGSV,4,4,15,24,31,232,28,25,19,325,26,50,13,093,42*44
$GPGLL,0836.25482,N,07650.46542,E,075325.00,A,A*6E
$GPRMC,075326.00,A,0836.26399,N,07650.45689,E,44.463,316.30,260424,,,A*53
$GPVTG,316.30,T,,M,44.463,N,82.346,K,A*30
$GPGGA,075326.00,0836.26399,N,07650.45689,E,1,11,1.00,20.3,M,-95.0,M,,*40
$GPGSA,A,3,20,05,11,12,24,22,19,06,13,25,15,,1.80,1.00,1.50*03
$GPGSV,4,1,15,05,63,180,30,06,10,032,18,11,39,005,37,12,47,334,33*72
$GPGSV,4,2,15,13,14,164,22,14,01,141,,15,12,194,26,17,03,090,23*7D
$GPGSV,4,3,15,18,00,238,,19,16,070,27,20,74,062,39,22,23,136,36*78
$GPGSV,4,4,15,24,31,232,25,25,19,325,24,50,13,093,39*47
$GPGLL,0836.26399,N,07650.45689,E,075326.00,A,A*64
$GPRMC,075327.00,A,0836.27294,N,07650.44814,E,44.654,314.43,260424,,,A*54
$GPVTG,314.43,T,,M,44.654,N,82.698,K,A*36
$GPGGA,075327.00,0836.27294,N,07650.44814,E,1,10,0.84,21.8,M,-95.0,M,,*41
$GPGSA,A,3,20,05,11,12,24,22,19,13,25,15,,,1.53,0.84,1.27*06
$GPGSV,4,1,15,05,63,180,30,06,10,032,,11,39,005,37,12,47,334,35*7D
$GPGSV,4,2,15,13,14,164,23,14,01,141,,15,12,194,25,17,03,090,21*7D
$GPGSV,4,3,15,18,00,238,,19,16,070,27,20,74,062,41,22,23,136,29*79
$GPGSV,4,4,15,24,31,232,23,25,19,325,23,50,13,093,39*46
$GPGLL,0836.27294,N,07650.44814,E,075327.00,A,A*63
$GPRMC,075328.00,A,0836.28124,N,07650.43932,E,42.274,313.87,260424,,,A*51
$GPVTG,313.87,T,,M,42.274,N,78.292,K,A*32
$GPGGA,075328.00,0836.28124,N,07650.43932,E,1,11,0.96,21.3,M,-95.0,M,,*42
$GPGSA,A,3,20,05,11,12,24,22,19,06,13,25,15,,1.59,0.96,1.27*09
$GPGSV,4,1,15,05,63,180,25,06,10,032,21,11,39,005,37,12,47,334,28*76
$GPGSV,4,2,15,13,14,164,24,14,01,141,,15,12,194,25,17,03,090,19*71
$GPGSV,4,3,15,18,00,238,,19,16,070,39,20,74,062,41,22,23,136,28*77
$GPGSV,4,4,15,24,31,232,21,25,19,325,22,50,13,093,39*45
$GPGLL,0836.28124,N,07650.43932,E,075328.00,A,A*69
$GPRMC,075329.00,A,0836.28932,N,07650.43036,E,42.789,312.15,260424,,,A*5F
$GPVTG,312.15,T,,M,42.789,N,79.245,K,A*34
$GPGGA,075329.00,0836.28932,N,07650.43036,E,1,11,0.96,21.6,M,-95.0,M,,*44
$GPGSA,A,3,20,05,11,12,24,22,19,06,13,25,15,,1.59,0.96,1.27*09
$GPGSV,4,1,15,05,63,180,31,06,10,032,21,11,39,005,38,12,47,334,28*7C
$GPGSV,4,2,15,13,14,164,23,14,01,141,,15,12,194,24,17,03,090,16*78
$GPGSV,4,3,15,18,00,238,,19,16,070,34,20,74,062,41,22,23,136,33*70
$GPGSV,4,4,15,24,31,232,20,25,19,325,21,50,13,093,39*47
$GPGLL,0836.28932,N,07650.43036,E,075329.00,A,A*6A
$GPRMC,075330.00,A,0836.29707,N,07650.42125,E,42.388,310.58,260424,,,A*52
$GPVTG,310.58,T,,M,42.388,N,78.502,K,A*3F
$GPGGA,075330.00,0836.29707,N,07650.42125,E,1,11,0.96,21.4,M,-95.0,M,,*45
$GPGSA,A,3,20,05,11,12,24,22,19,06,13,25,15,,1.59,0.96,1.27*09
$GPGSV,4,1,15,05,63,180,30,06,10,032,20,11,39,005,38,12,47,334,29*7D
$GPGSV,4,2,15,13,14,164,23,14,01,141,,15,12,194,23,17,03,090,*78
$GPGSV,4,3,15,18,00,238,,19,16,070,34,20,74,062,41,22,23,136,36*75
$GPGSV,4,4,15,24,31,232,21,25,19,325,25,50,13,093,36*4D
$GPGLL,0836.29707,N,07650.42125,E,075330.00,A,A*69
$GPRMC,075331.00,A,0836.30457,N,07650.41200,E,42.272,309.17,260424,,,A*5D
$GPVTG,309.17,T,,M,42.272,N,78.288,K,A*3D
$GPGGA,075331.00,0836.30457,N,07650.41200,E,1,11,0.96,21.3,M,-95.0,M,,*4A
$GPGSA,A,3,20,05,11,12,24,22,19,06,13,25,15,,1.59,0.96,1.27*09
$GPGSV,4,1,15,05,63,180,25,06,10,032,23,11,39,005,38,12,47,334,27*74
$GPGSV,4,2,15,13,14,164,21,14,01,141,,15,12,194,22,17,03,090,14*7E
$GPGSV,4,3,15,18,00,238,,19,16,070,39,20,74,062,40,22,23,136,37*78
$GPGSV,4,4,15,24,31,232,21,25,19,325,26,50,13,093,33*4B
$GPGLL,0836.30457,N,07650.41200,E,075331.00,A,A*61
$GPRMC,075332.00,A,0836.31181,N,07650.40259,E,41.783,307.60,260424,,,A*5A
$GPVTG,307.60,T,,M,41.783,N,77.383,K,A*3E
$GPGGA,075332.00,0836.31181,N,07650.40259,E,1,11,0.84,21.7,M,-95.0,M,,*4C
$GPGSA,A,3,20,05,11,12,24,22,19,06,13,25,15,,1.53,0.84,1.27*00
$GPGSV,4,1,15,05,63,180,27,06,10,032,20,11,39,005,37,12,47,334,28*75
$GPGSV,4,2,15,13,14,164,22,14,01,141,,15,12,194,22,17,03,090,*78
$GPGSV,4,3,15,18,00,238,,19,16,070,29,20,74,062,39,22,23,136,30*70
$GPGSV,4,4,15,24,31,232,22,25,19,325,25,50,13,093,34*4C
$GPGLL,0836.31181,N,07650.40259,E,075332.00,A,A*60
$GPRMC,075333.00,A,0836.31909,N,07650.39393,E,39.859,310.71,260424,,,A*5B
$GPVTG,310.71,T,,M,39.859,N,73.819,K,A*33
$GPGGA,075333.00,0836.31909,N,07650.39393,E,1,10,0.96,21.4,M,-95.0,M,,*4D
$GPGSA,A,3,20,05,11,12,24,22,19,13,25,15,,,1.59,0.96,1.27*0F
$GPGSV,4,1,15,05,63,180,29,06,10,032,,11,39,005,38,12,47,334,28*76
$GPGSV,4,2,15,13,14,164,21,14,01,141,,15,12,194,23,17,03,090,*7A
$GPGSV,4,3,15,18,00,238,,19,16,070,28,20,74,062,40,22,23,136,34*7B
$GPGSV,4,4,15,24,31,232,22,25,19,325,26,50,13,093,36*4D
$GPGLL,0836.31909,N,07650.39393,E,075333.00,A,A*60
$GPRMC,075334.00,A,0836.32621,N,07650.38553,E,38.689,310.66,260424,,,A*55
$GPVTG,310.66,T,,M,38.689,N,71.651,K,A*37
$GPGGA,075334.00,0836.32621,N,07650.38553,E,1,11,0.96,21.2,M,-95.0,M,,*40
$GPGSA,A,3,20,05,11,12,24,22,19,06,13,25,15,,1.59,0.96,1.27*09
$GPGSV,4,1,15,05,63,180,29,06,10,032,20,11,39,005,38,12,47,334,26*7A
$GPGSV,4,2,15,13,14,164,22,14,01,141,,15,12,194,23,17,03,090,*79
$GPGSV,4,3,15,18,00,238,,19,16,070,38,20,74,062,41,22,23,136,29*77
$GPGSV,4,4,15,24,31,232,22,25,19,325,27,50,13,093,34*4E
$GPGLL,0836.32621,N,07650.38553,E,075334.00,A,A*6A
$GPRMC,075335.00,A,0836.33338,N,07650.37721,E,39.022,310.82,260424,,,A*5C
$GPVTG,310.82,T,,M,39.022,N,72.269,K,A*37
$GPGGA,075335.00,0836.33338,N,07650.37721,E,1,11,1.02,21.8,M,-95.0,M,,*43
$GPGSA,A,3,20,05,11,12,24,22,19,06,13,25,15,,1.63,1.02,1.28*03
$GPGSV,4,1,15,05,63,180,29,06,10,032,21,11,39,005,38,12,47,334,25*78
$GPGSV,4,2,15,13,14,164,24,14,01,141,,15,12,194,25,17,03,090,*79
$GPGSV,4,3,15,18,00,238,,19,16,070,33,20,74,062,40,22,23,136,27*73
$GPGSV,4,4,15,24,31,232,23,25,19,325,27,50,13,093,36*4D
$GPGLL,0836.33338,N,07650.37721,E,075335.00,A,A*6F
$GPRMC,075336.00,A,0836.34055,N,07650.36914,E,38.013,311.71,260424,,,A*57
$GPVTG,311.71,T,,M,38.013,N,70.399,K,A*35
$GPGGA,075336.00,0836.34055,N,07650.36914,E,1,11,0.95,22.9,M,-95.0,M,,*4B
$GPGSA,A,3,20,05,11,12,24,22,19,06,13,25,15,,1.50,0.95,1.16*01
$GPGSV,4,1,15,05,63,180,29,06,10,032,22,11,39,005,38,12,47,334,27*79
$GPGSV,4,2,15,13,14,164,24,14,01,141,,15,12,194,25,17,03,090,*79
$GPGSV,4,3,15,18,00,238,,19,16,070,29,20,74,062,40,22,23,136,34*7A
$GPGSV,4,4,15,24,31,232,21,25,19,325,25,50,13,093,38*43
$GPGLL,0836.34055,N,07650.36914,E,075336.00,A,A*6A
$GPRMC,075337.00,A,0836.34751,N,07650.36134,E,36.936,311.89,260424,,,A*58
$GPVTG,311.89,T,,M,36.936,N,68.406,K,A*3A
$GPGGA,075337.00,0836.34751,N,07650.36134,E,1,11,0.89,23.3,M,-95.0,M,,*45
$GPGSA,A,3,20,05,11,12,24,22,19,06,13,25,15,,1.47,0.89,1.16*0A
$GPGSV,4,1,15,05,63,180,29,06,10,032,26,11,39,005,38,12,47,334,28*72
$GPGSV,4,2,15,13,14,164,24,14,01,141,,15,12,194,24,17,03,090,18*71
$GPGSV,4,3,15,18,00,238,,19,16,070,33,20,74,062,39,22,23,136,29*73
$GPGSV,4,4,15,24,31,232,19,25,19,325,23,50,13,093,40*41
$GPGLL,0836.34751,N,07650.36134,E,075337.00,A,A*62
$GPRMC,075338.00,A,0836.35415,N,07650.35387,E,35.056,311.10,260424,,,A*50
$GPVTG,311.10,T,,M,35.056,N,64.923,K,A*30
$GPGGA,075338.00,0836.35415,N,07650.35387,E,1,11,0.79,24.1,M,-95.0,M,,*4B
$GPGSA,A,3,20,05,11,12,24,22,19,06,13,25,15,,1.41,0.79,1.16*03
$GPGSV,4,1,15,05,63,180,29,06,10,032,26,11,39,005,32,12,47,334,28*78
$GPGSV,4,2,15,13,14,164,24,14,01,141,,15,12,194,23,17,03,090,15*7B
$GPGSV,4,3,15,18,00,238,,19,16,070,39,20,74,062,41,22,23,136,28*77
$GPGSV,4,4,15,24,31,232,18,25,19,325,25,50,13,093,38*49
$GPGLL,0836.35415,N,07650.35387,E,075338.00,A,A*66
$GPRMC,075339.00,A,0836.36072,N,07650.34635,E,35.532,311.85,260424,,,A*51
$GPVTG,311.85,T,,M,35.532,N,65.805,K,A*3F
$GPGGA,075339.00,0836.36072,N,07650.34635,E,1,11,0.89,24.3,M,-95.0,M,,*4C
$GPGSA,A,3,20,05,11,12,24,22,19,06,13,25,15,,1.47,0.89,1.16*0A
$GPGSV,4,1,15,05,63,180,28,06,10,032,24,11,39,005,35,12,47,334,30*75
$GPGSV,4,2,15,13,14,164,24,14,01,141,18,15,12,194,24,17,03,090,*71
$GPGSV,4,3,15,18,00,238,,19,16,070,30,20,74,062,40,22,23,136,32*74
$GPGSV,4,4,15,24,31,232,20,25,19,325,26,50,13,093,30*49
$GPGLL,0836.36072,N,07650.34635,E,075339.00,A,A*6C
$GPRMC,075340.00,A,0836.36701,N,07650.33847,E,35.527,308.56,260424,,,A*52
$GPVTG,308.56,T,,M,35.527,N,65.796,K,A*38
$GPGGA,075340.00,0836.36701,N,07650.33847,E,1,11,0.89,24.6,M,-95.0,M,,*48
$GPGSA,A,3,20,05,11,12,24,22,19,06,13,25,15,,1.47,0.89,1.16*0A
$GPGSV,4,1,15,05,63,180,29,06,10,032,21,11,39,005,36,12,47,334,29*7A
$GPGSV,4,2,15,13,14,164,24,14,01,141,18,15,12,194,24,17,03,090,*71
$GPGSV,4,3,15,18,00,238,,19,16,070,33,20,74,062,39,22,23,136,33*78
$GPGSV,4,4,15,24,31,232,20,25,19,325,32,50,13,093,37*4B
$GPGLL,0836.36701,N,07650.33847,E,075340.00,A,A*6D
$GPRMC,075341.00,A,0836.37332,N,07650.33101,E,34.396,310.92,260424,,,A*51
$GPVTG,310.92,T,,M,34.396,N,63.702,K,A*3F
$GPGGA,075341.00,0836.37332,N,07650.33101,E,1,11,0.89,24.7,M,-95.0,M,,*46
$GPGSA,A,3,20,05,11,12,24,22,19,06,13,25,15,,1.47,0.89,1.16*0A
$GPGSV,4,1,15,05,63,180,28,06,10,032,19,11,39,005,37,12,47,334,29*71
$GPGSV,4,2,15,13,14,164,22,14,01,141,16,15,12,194,26,17,03,090,*7B
$GPGSV,4,3,15,18,00,238,,19,16,070,30,20,74,062,41,22,23,136,29*7F
$GPGSV,4,4,15,24,31,232,19,25,19,325,30,50,13,093,37*43
$GPGLL,0836.37332,N,07650.33101,E,075341.00,A,A*62
$GPRMC,075342.00,A,0836.37966,N,07650.32415,E,32.890,313.18,260424,,,A*52
$GPVTG,313.18,T,,M,32.890,N,60.913,K,A*38
$GPGGA,075342.00,0836.37966,N,07650.32415,E,1,11,0.96,24.6,M,-95.0,M,,*40
$GPGSA,A,3,20,05,11,12,24,22,19,06,13,25,15,,1.59,0.96,1.27*09
$GPGSV,4,1,15,05,63,180,32,06,10,032,24,11,39,005,37,12,47,334,28*75
$GPGSV,4,2,15,13,14,164,23,14,01,141,15,15,12,194,25,17,03,090,*7A
$GPGSV,4,3,15,18,00,238,,19,16,070,29,20,74,062,41,22,23,136,29*77
$GPGSV,4,4,15,24,31,232,20,25,19,325,29,50,13,093,30*46
$GPGLL,0836.37966,N,07650.32415,E,075342.00,A,A*6B
$GPRMC,075343.00,A,0836.38605,N,07650.31792,E,31.571,314.87,260424,,,A*59
$GPVTG,314.87,T,,M,31.571,N,58.470,K,A*3B
$GPGGA,075343.00,0836.38605,N,07650.31792,E,1,11,0.84,25.3,M,-95.0,M,,*4C
$GPGSA,A,3,20,05,11,12,24,22,19,06,13,25,15,,1.53,0.84,1.27*00
$GPGSV,4,1,15,05,63,180,31,06,10,032,21,11,39,005,31,12,47,334,26*7B
$GPGSV,4,2,15,13,14,164,22,14,01,141,13,15,12,194,23,17,03,090,*7B
$GPGSV,4,3,15,18,00,238,,19,16,070,30,20,74,062,41,22,23,136,29*7F
$GPGSV,4,4,15,24,31,232,20,25,19,325,20,50,13,093,36*49
$GPGLL,0836.38605,N,07650.31792,E,075343.00,A,A*60
$GPRMC,075344.00,A,0836.39194,N,07650.31093,E,32.367,309.79,260424,,,A*59
$GPVTG,309.79,T,,M,32.367,N,59.943,K,A*38
$GPGGA,075344.00,0836.39194,N,07650.31093,E,1,11,0.89,25.5,M,-95.0,M,,*48
$GPGSA,A,3,20,05,11,12,24,22,19,06,13,25,15,,1.47,0.89,1.16*0A
$GPGSV,4,1,15,05,63,180,31,06,10,032,33,11,39,005,34,12,47,334,26*7D
$GPGSV,4,2,15,13,14,164,23,14,01,141,11,15,12,194,22,17,03,090,*79
$GPGSV,4,3,15,18,00,238,,19,16,070,30,20,74,062,39,22,23,136,33*7B
$GPGSV,4,4,15,24,31,232,21,25,19,325,29,50,13,093,35*42
$GPGLL,0836.39194,N,07650.31093,E,075344.00,A,A*6F
$GPRMC,075345.00,A,0836.39754,N,07650.30436,E,30.381,310.64,260424,,,A*56
$GPVTG,310.64,T,,M,30.381,N,56.266,K,A*35
$GPGGA,075345.00,0836.39754,N,07650.30436,E,1,10,0.89,25.6,M,-95.0,M,,*4B
$GPGSA,A,3,20,05,11,12,22,19,06,13,25,15,,,1.47,0.89,1.16*0C
$GPGSV,4,1,15,05,63,180,30,06,10,032,27,11,39,005,19,12,47,334,25*75
$GPGSV,4,2,15,13,14,164,22,14,01,141,11,15,12,194,23,17,03,090,*79
$GPGSV,4,3,15,18,00,238,,19,16,070,42,20,74,062,39,22,23,136,28*74
$GPGSV,4,4,15,24,31,232,,25,19,325,22,50,13,093,35*4A
$GPGLL,0836.39754,N,07650.30436,E,075345.00,A,A*6E
$GPRMC,075346.00,A,0836.40290,N,07650.29800,E,29.582,310.25,260424,,,A*5F
$GPVTG,310.25,T,,M,29.582,N,54.785,K,A*37
$GPGGA,075346.00,0836.40290,N,07650.29800,E,1,11,0.89,26.4,M,-95.0,M,,*4A
$GPGSA,A,3,20,05,11,12,24,22,19,06,13,25,15,,1.47,0.89,1.16*0A
$GPGSV,4,1,15,05,63,180,30,06,10,032,26,11,39,005,36,12,47,334,26*7A
$GPGSV,4,2,15,13,14,164,22,14,01,141,12,15,12,194,23,17,03,090,*7A
$GPGSV,4,3,15,18,00,238,,19,16,070,38,20,74,062,40,22,23,136,32*7C
$GPGSV,4,4,15,24,31,232,20,25,19,325,22,50,13,093,33*4E
$GPGLL,0836.40290,N,07650.29800,E,075346.00,A,A*6F
$GPRMC,075347.00,A,0836.40822,N,07650.29172,E,29.481,310.27,260424,,,A*51
$GPVTG,310.27,T,,M,29.481,N,54.598,K,A*39
$GPGGA,075347.00,0836.40822,N,07650.29172,E,1,11,0.89,26.9,M,-95.0,M,,*49
$GPGSA,A,3,20,05,11,12,24,22,19,06,13,25,15,,1.47,0.89,1.16*0A
$GPGSV,4,1,15,05,63,180,30,06,10,032,24,11,39,005,36,12,47,334,25*7B
$GPGSV,4,2,15,13,14,164,22,14,01,141,14,15,12,194,23,17,03,090,*7C
$GPGSV,4,3,15,18,00,238,,19,16,070,39,20,74,062,38,22,23,136,35*75
$GPGSV,4,4,15,24,31,232,21,25,19,325,24,50,13,093,28*43
$GPGLL,0836.40822,N,07650.29172,E,075347.00,A,A*61
$GPRMC,075348.00,A,0836.41367,N,07650.28567,E,28.994,312.28,260424,,,A*51
$GPVTG,312.28,T,,M,28.994,N,53.697,K,A*37
$GPGGA,075348.00,0836.41367,N,07650.28567,E,1,11,0.89,27.4,M,-95.0,M,,*40
$GPGSA,A,3,20,05,11,12,24,22,19,06,13,25,15,,1.47,0.89,1.16*0A
$GPGSV,4,1,15,05,63,180,31,06,10,032,21,11,39,005,36,12,47,334,24*7E
$GPGSV,4,2,15,13,14,164,21,14,01,141,14,15,12,194,23,17,03,090,*7F
$GPGSV,4,3,15,18,00,238,,19,16,070,33,20,74,062,40,22,23,136,29*7D
$GPGSV,4,4,15,24,31,232,21,25,19,325,25,50,13,093,36*4D
$GPGLL,0836.41367,N,07650.28567,E,075348.00,A,A*64
$GPRMC,075349.00,A,0836.41894,N,07650.27984,E,27.754,312.81,260424,,,A*57
$GPVTG,312.81,T,,M,27.754,N,51.401,K,A*36
$GPGGA,075349.00,0836.41894,N,07650.27984,E,1,09,0.96,27.1,M,-95.0,M,,*4A
$GPGSA,A,3,20,05,11,12,22,19,13,25,15,,,,1.59,0.96,1.28*06
$GPGSV,4,1,15,05,63,180,30,06,10,032,,11,39,005,38,12,47,334,23*75
$GPGSV,4,2,15,13,14,164,21,14,01,141,13,15,12,194,22,17,03,090,*79
$GPGSV,4,3,15,18,00,238,,19,16,070,32,20,74,062,39,22,23,136,32*78
$GPGSV,4,4,15,24,31,232,,25,19,325,26,50,13,093,36*4D
$GPGLL,0836.41894,N,07650.27984,E,075349.00,A,A*6C
$GPRMC,075350.00,A,0836.42415,N,07650.27385,E,28.463,311.40,260424,,,A*54
$GPVTG,311.40,T,,M,28.463,N,52.713,K,A*33
$GPGGA,075350.00,0836.42415,N,07650.27385,E,1,11,0.99,27.1,M,-95.0,M,,*49
$GPGSA,A,3,20,05,11,12,24,22,19,06,13,25,15,,1.63,0.99,1.30*09
$GPGSV,4,1,15,05,63,180,30,06,10,032,22,11,39,005,38,12,47,334,22*74
$GPGSV,4,2,15,13,14,164,23,14,01,141,11,15,12,194,23,17,03,090,*78
$GPGSV,4,3,15,18,00,238,19,19,16,070,35,20,74,062,40,22,23,136,36*7D
$GPGSV,4,4,15,24,31,232,20,25,19,325,27,50,13,093,33*4B
$GPGLL,0836.42415,N,07650.27385,E,075350.00,A,A*69
$GPRMC,075351.00,A,0836.42910,N,07650.26775,E,27.691,308.94,260424,,,A*56
$GPVTG,308.94,T,,M,27.691,N,51.285,K,A*3B
$GPGGA,075351.00,0836.42910,N,07650.26775,E,1,10,0.99,26.9,M,-95.0,M,,*42
$GPGSA,A,3,20,05,11,24,22,19,06,13,25,15,,,1.63,0.99,1.30*0A
$GPGSV,4,1,15,05,63,180,30,06,10,032,22,11,39,005,32,12,47,334,*7E
$GPGSV,4,2,15,13,14,164,23,14,01,141,11,15,12,194,23,17,03,090,*78
$GPGSV,4,3,15,18,00,238,18,19,16,070,31,20,74,062,40,22,23,136,33*7D
$GPGSV,4,4,15,24,31,232,21,25,19,325,24,50,13,093,33*49
$GPGLL,0836.42910,N,07650.26775,E,075351.00,A,A*6A
$GPRMC,075352.00,A,0836.43411,N,07650.26206,E,27.395,310.75,260424,,,A*5E
$GPVTG,310.75,T,,M,27.395,N,50.735,K,A*33
$GPGGA,075352.00,0836.43411,N,07650.26206,E,1,11,1.02,27.2,M,-95.0,M,,*45
$GPGSA,A,3,20,05,11,12,24,22,19,06,13,25,15,,1.63,1.02,1.28*03
$GPGSV,4,1,15,05,63,180,31,06,10,032,25,11,39,005,38,12,47,334,23*73
$GPGSV,4,2,15,13,14,164,23,14,01,141,12,15,12,194,23,17,03,090,*7B
$GPGSV,4,3,15,18,00,238,15,19,16,070,34,20,74,062,40,22,23,136,32*74
$GPGSV,4,4,15,24,31,232,21,25,19,325,22,50,13,093,36*4A
$GPGLL,0836.43411,N,07650.26206,E,075352.00,A,A*65
$GPRMC,075353.00,A,0836.43891,N,07650.25787,E,22.268,318.15,260424,,,A*5C
$GPVTG,318.15,T,,M,22.268,N,41.240,K,A*3C
$GPGGA,075353.00,0836.43891,N,07650.25787,E,1,10,1.02,27.8,M,-95.0,M,,*44
$GPGSA,A,3,20,05,11,12,24,22,19,06,13,15,,,1.63,1.02,1.28*04
$GPGSV,4,1,15,05,63,180,31,06,10,032,24,11,39,005,32,12,47,334,23*78
$GPGSV,4,2,15,13,14,164,24,14,01,141,13,15,12,194,23,17,03,090,17*7B
$GPGSV,4,3,15,18,00,238,12,19,16,070,30,20,74,062,39,22,23,136,28*72
$GPGSV,4,4,15,24,31,232,20,25,19,325,,50,13,093,35*48
$GPGLL,0836.43891,N,07650.25787,E,075353.00,A,A*6F
$GPRMC,075354.00,A,0836.44348,N,07650.25254,E,25.272,309.30,260424,,,A*53
$GPVTG,309.30,T,,M,25.272,N,46.804,K,A*3A
$GPGGA,075354.00,0836.44348,N,07650.25254,E,1,11,0.93,28.3,M,-95.0,M,,*4C
$GPGSA,A,3,20,05,11,12,24,22,19,06,13,25,15,,1.58,0.93,1.27*0D
$GPGSV,4,1,15,05,63,180,31,06,10,032,24,11,39,005,38,12,47,334,36*76
$GPGSV,4,2,15,13,14,164,24,14,01,141,15,15,12,194,23,17,03,090,*7B
$GPGSV,4,3,15,18,00,238,10,19,16,070,30,20,74,062,41,22,23,136,32*74
$GPGSV,4,4,15,24,31,232,22,25,19,325,25,50,13,093,33*4B
$GPGLL,0836.44348,N,07650.25254,E,075354.00,A,A*6B
$GPRMC,075355.00,A,0836.44813,N,07650.24753,E,24.193,313.87,260424,,,A*5E
$GPVTG,313.87,T,,M,24.193,N,44.805,K,A*33
$GPGGA,075355.00,0836.44813,N,07650.24753,E,1,11,0.79,28.9,M,-95.0,M,,*45
$GPGSA,A,3,20,05,11,12,24,22,19,06,13,25,15,,1.41,0.79,1.16*03
$GPGSV,4,1,15,05,63,180,30,06,10,032,30,11,39,005,35,12,47,334,29*71
$GPGSV,4,2,15,13,14,164,23,14,01,141,15,15,12,194,23,17,03,090,*7C
$GPGSV,4,3,15,18,00,238,12,19,16,070,41,20,74,062,42,22,23,136,32*73
$GPGSV,4,4,15,24,31,232,22,25,19,325,24,50,13,093,36*4F
$GPGLL,0836.44813,N,07650.24753,E,075355.00,A,A*6C
$GPRMC,075356.00,A,0836.45280,N,07650.24305,E,22.722,316.45,260424,,,A*5A
$GPVTG,316.45,T,,M,22.722,N,42.080,K,A*31
$GPGGA,075356.00,0836.45280,N,07650.24305,E,1,11,0.79,29.5,M,-95.0,M,,*4D
$GPGSA,A,3,20,05,11,12,24,22,19,06,13,25,15,,1.41,0.79,1.16*03
$GPGSV,4,1,15,05,63,180,29,06,10,032,30,11,39,005,34,12,47,334,27*76
$GPGSV,4,2,15,13,14,164,23,14,01,141,13,15,12,194,22,17,03,090,*7B
$GPGSV,4,3,15,18,00,238,14,19,16,070,32,20,74,062,39,22,23,136,32*7D
$GPGSV,4,4,15,24,31,232,23,25,19,325,22,50,13,093,37*49
$GPGLL,0836.45280,N,07650.24305,E,075356.00,A,A*69
$GPRMC,075357.00,A,0836.45721,N,07650.23819,E,22.660,312.59,260424,,,A*5A
$GPVTG,312.59,T,,M,22.660,N,41.967,K,A*3C
$GPGGA,075357.00,0836.45721,N,07650.23819,E,1,11,0.79,29.1,M,-95.0,M,,*47
$GPGSA,A,3,20,05,11,12,24,22,19,06,13,25,15,,1.41,0.79,1.16*03
$GPGSV,4,1,15,05,63,180,28,06,10,032,30,11,39,005,35,12,47,334,27*76
$GPGSV,4,2,15,13,14,164,22,14,01,141,10,15,12,194,23,17,03,090,20*7A
$GPGSV,4,3,15,18,00,238,,19,16,070,33,20,74,062,41,22,23,136,32*76
$GPGSV,4,4,15,24,31,232,23,25,19,325,23,50,13,093,39*46
$GPGLL,0836.45721,N,07650.23819,E,075357.00,A,A*67
$GPRMC,075358.00,A,0836.46159,N,07650.23331,E,23.058,311.87,260424,,,A*52
$GPVTG,311.87,T,,M,23.058,N,42.704,K,A*38
$GPGGA,075358.00,0836.46159,N,07650.23331,E,1,11,0.79,29.3,M,-95.0,M,,*41
$GPGSA,A,3,20,05,11,12,24,22,19,06,13,25,15,,1.41,0.79,1.16*03
$GPGSV,4,1,15,05,63,180,27,06,10,032,24,11,39,005,35,12,47,334,27*7C
$GPGSV,4,2,15,13,14,164,23,14,01,141,,15,12,194,23,17,03,090,*78
$GPGSV,4,3,15,18,00,238,,19,16,070,33,20,74,062,40,22,23,136,32*77
$GPGSV,4,4,15,24,31,232,23,25,19,325,22,50,13,093,34*4A
$GPGLL,0836.46159,N,07650.23331,E,075358.00,A,A*63
$GPRMC,075359.00,A,0836.46582,N,07650.22814,E,23.096,309.35,260424,,,A*5E
$GPVTG,309.35,T,,M,23.096,N,42.774,K,A*3D
$GPGGA,075359.00,0836.46582,N,07650.22814,E,1,11,0.79,29.3,M,-95.0,M,,*4F
$GPGSA,A,3,20,05,11,12,24,22,19,06,13,25,15,,1.41,0.79,1.16*03
$GPGSV,4,1,15,05,63,180,29,06,10,032,23,11,39,005,38,12,47,334,32*7C
$GPGSV,4,2,15,13,14,164,23,14,01,141,,15,12,194,24,17,03,090,*7F
$GPGSV,4,3,15,18,00,238,,19,16,070,37,20,74,062,41,22,23,136,32*72
$GPGSV,4,4,15,24,31,232,24,25,19,325,22,50,13,093,37*4E
$GPGLL,0836.46582,N,07650.22814,E,075359.00,A,A*6D
$GPRMC,075400.00,A,0836.47006,N,07650.22306,E,22.807,310.95,260424,,,A*56
$GPVTG,310.95,T,,M,22.807,N,42.239,K,A*32
$GPGGA,075400.00,0836.47006,N,07650.22306,E,1,11,0.79,28.7,M,-95.0,M,,*41
$GPGSA,A,3,20,05,11,12,24,22,19,06,13,25,15,,1.41,0.79,1.16*03
$GPGSV,4,1,15,05,63,180,30,06,10,032,30,11,39,005,37,12,47,334,31*7A
$GPGSV,4,2,15,13,14,164,23,14,01,141,,15,12,194,24,17,03,090,*7F
$GPGSV,4,3,15,18,00,238,,19,16,070,34,20,74,062,41,22,23,136,31*72
$GPGSV,4,4,15,24,31,232,23,25,19,325,24,50,13,093,35*4D
$GPGLL,0836.47006,N,07650.22306,E,075400.00,A,A*66
$GPRMC,075401.00,A,0836.47435,N,07650.21876,E,21.056,315.66,260424,,,A*5A
$GPVTG,315.66,T,,M,21.056,N,38.996,K,A*37
$GPGGA,075401.00,0836.47435,N,07650.21876,E,1,11,0.79,29.1,M,-95.0,M,,*4C
$GPGSA,A,3,20,05,11,12,24,22,19,06,13,25,15,,1.41,0.79,1.16*03
$GPGSV,4,1,15,05,63,180,29,06,10,032,24,11,39,005,35,12,47,334,25*70
$GPGSV,4,2,15,13,14,164,24,14,01,141,,15,12,194,24,17,03,090,*78
$GPGSV,4,3,15,18,00,238,,19,16,070,35,20,74,062,39,22,23,136,30*7D
$GPGSV,4,4,15,24,31,232,22,25,19,325,25,50,13,093,35*4D
$GPGLL,0836.47435,N,07650.21876,E,075401.00,A,A*6C
$GPRMC,075402.00,A,0836.47822,N,07650.21470,E,19.609,312.76,260424,,,A*58
$GPVTG,312.76,T,,M,19.609,N,36.316,K,A*3A
$GPGGA,075402.00,0836.47822,N,07650.21470,E,1,11,0.79,29.8,M,-95.0,M,,*46
$GPGSA,A,3,20,05,11,12,24,22,19,06,13,25,15,,1.41,0.79,1.16*03
$GPGSV,4,1,15,05,63,180,27,06,10,032,25,11,39,005,35,12,47,334,25*7F
$GPGSV,4,2,15,13,14,164,22,14,01,141,,15,12,194,24,17,03,090,*7E
$GPGSV,4,3,15,18,00,238,,19,16,070,38,20,74,062,39,22,23,136,30*70
$GPGSV,4,4,15,24,31,232,21,25,19,325,23,50,13,093,32*4F
$GPGLL,0836.47822,N,07650.21470,E,075402.00,A,A*6F
$GPRMC,075403.00,A,0836.48239,N,07650.21051,E,21.083,315.65,260424,,,A*5B
$GPVTG,315.65,T,,M,21.083,N,39.045,K,A*3A
$GPGGA,075403.00,0836.48239,N,07650.21051,E,1,11,0.79,30.4,M,-95.0,M,,*4B
$GPGSA,A,3,20,05,11,12,24,22,19,06,13,25,15,,1.41,0.79,1.16*03
$GPGSV,4,1,15,05,63,180,26,06,10,032,24,11,39,005,33,12,47,334,26*7A
$GPGSV,4,2,15,13,14,164,22,14,01,141,,15,12,194,25,17,03,090,*7F
$GPGSV,4,3,15,18,00,238,,19,16,070,34,20,74,062,40,22,23,136,23*70
$GPGSV,4,4,15,24,31,232,21,25,19,325,24,50,13,093,33*49
$GPGLL,0836.48239,N,07650.21051,E,075403.00,A,A*66
$GPRMC,075404.00,A,0836.48690,N,07650.20708,E,19.789,324.45,260424,,,A*57
$GPVTG,324.45,T,,M,19.789,N,36.650,K,A*31
$GPGGA,075404.00,0836.48690,N,07650.20708,E,1,11,0.79,30.7,M,-95.0,M,,*42
$GPGSA,A,3,20,05,11,12,24,22,19,06,13,25,15,,1.41,0.79,1.16*03
$GPGSV,4,1,15,05,63,180,25,06,10,032,24,11,39,005,36,12,47,334,26*7C
$GPGSV,4,2,15,13,14,164,22,14,01,141,,15,12,194,24,17,03,090,*7E
$GPGSV,4,3,15,18,00,238,,19,16,070,26,20,74,062,40,22,23,136,29*79
$GPGSV,4,4,15,24,31,232,21,25,19,325,25,50,13,093,31*4A
$GPGLL,0836.48690,N,07650.20708,E,075404.00,A,A*6C
$GPRMC,075405.00,A,0836.49116,N,07650.20272,E,21.267,315.23,260424,,,A*5A
$GPVTG,315.23,T,,M,21.267,N,39.386,K,A*3C
$GPGGA,075405.00,0836.49116,N,07650.20272,E,1,11,0.79,30.6,M,-95.0,M,,*42
$GPGSA,A,3,20,05,11,12,24,22,19,06,13,25,15,,1.41,0.79,1.16*03
$GPGSV,4,1,15,05,63,180,25,06,10,032,23,11,39,005,36,12,47,334,30*7C
$GPGSV,4,2,15,13,14,164,24,14,01,141,,15,12,194,24,17,03,090,*78
$GPGSV,4,3,15,18,00,238,,19,16,070,41,20,74,062,40,22,23,136,30*70
$GPGSV,4,4,15,24,31,232,21,25,19,325,26,50,13,093,33*4B
$GPGLL,0836.49116,N,07650.20272,E,075405.00,A,A*6D
$GPRMC,075406.00,A,0836.49506,N,07650.19788,E,21.282,310.16,260424,,,A*5E
$GPVTG,310.16,T,,M,21.282,N,39.414,K,A*38
$GPGGA,075406.00,0836.49506,N,07650.19788,E,1,11,0.84,30.2,M,-95.0,M,,*48
$GPGSA,A,3,20,05,11,12,24,22,19,06,13,25,15,,1.53,0.84,1.28*0F
$GPGSV,4,1,15,05,63,180,31,06,10,032,21,11,39,005,36,12,47,334,29*73
$GPGSV,4,2,15,13,14,164,25,14,01,141,,15,12,194,25,17,03,090,*78
$GPGSV,4,3,15,18,00,238,,19,16,070,40,20,74,062,40,22,23,136,32*73
$GPGSV,4,4,15,24,31,232,21,25,19,325,27,50,13,093,34*4D
$GPGLL,0836.49506,N,07650.19788,E,075406.00,A,A*61
$GPRMC,075407.00,A,0836.49897,N,07650.19329,E,20.676,312.64,260424,,,A*5C
$GPVTG,312.64,T,,M,20.676,N,38.292,K,A*38
$GPGGA,075407.00,0836.49897,N,07650.19329,E,1,10,0.84,30.0,M,-95.0,M,,*40
$GPGSA,A,3,20,05,11,12,24,22,19,13,25,15,,,1.53,0.84,1.28*09
$GPGSV,4,1,15,05,63,180,26,06,10,032,,11,39,005,34,12,47,334,28*75
$GPGSV,4,2,15,13,14,164,23,14,01,141,,15,12,194,25,17,03,090,*7E
$GPGSV,4,3,15,18,00,238,,19,16,070,31,20,74,062,40,22,23,136,36*71
$GPGSV,4,4,15,24,31,232,22,25,19,325,26,50,13,093,34*4F
$GPGLL,0836.49897,N,07650.19329,E,075407.00,A,A*6A
$GPRMC,075408.00,A,0836.50304,N,07650.18909,E,20.129,316.28,260424,,,A*52
$GPVTG,316.28,T,,M,20.129,N,37.278,K,A*32
$GPGGA,075408.00,0836.50304,N,07650.18909,E,1,11,0.84,29.5,M,-95.0,M,,*43
$GPGSA,A,3,20,05,11,12,24,22,19,06,13,25,15,,1.53,0.84,1.28*0F
$GPGSV,4,1,15,05,63,180,25,06,10,032,21,11,39,005,36,12,47,334,28*77
$GPGSV,4,2,15,13,14,164,25,14,01,141,,15,12,194,25,17,03,090,*78
$GPGSV,4,3,15,18,00,238,,19,16,070,26,20,74,062,40,22,23,136,33*72
$GPGSV,4,4,15,24,31,232,23,25,19,325,26,50,13,093,35*4F
$GPGLL,0836.50304,N,07650.18909,E,075408.00,A,A*65
$GPRMC,075409.00,A,0836.50699,N,07650.18470,E,20.351,313.78,260424,,,A*5C
$GPVTG,313.78,T,,M,20.351,N,37.690,K,A*3D
$GPGGA,075409.00,0836.50699,N,07650.18470,E,1,11,0.79,29.0,M,-95.0,M,,*47
$GPGSA,A,3,20,05,11,12,24,22,19,06,13,25,15,,1.41,0.79,1.16*03
$GPGSV,4,1,15,05,63,180,26,06,10,032,24,11,39,005,36,12,47,334,28*71
$GPGSV,4,2,15,13,14,164,27,14,01,141,,15,12,194,27,17,03,090,*78
$GPGSV,4,3,15,18,00,238,,19,16,070,32,20,74,062,40,22,23,136,33*77
$GPGSV,4,4,15,24,31,232,24,25,19,325,26,50,13,093,32*4F
$GPGLL,0836.50699,N,07650.18470,E,075409.00,A,A*66
$GPRMC,075410.00,A,0836.51089,N,07650.18039,E,20.339,314.08,260424,,,A*55
$GPVTG,314.08,T,,M,20.339,N,37.668,K,A*34
$GPGGA,075410.00,0836.51089,N,07650.18039,E,1,11,0.94,29.0,M,-95.0,M,,*43
$GPGSA,A,3,20,05,11,12,24,22,19,06,13,25,15,,1.58,0.94,1.27*0A
$GPGSV,4,1,15,05,63,180,25,06,10,032,30,11,39,005,36,12,47,334,28*77
$GPGSV,4,2,15,13,14,164,26,14,01,141,,15,12,194,25,17,03,090,*7B
$GPGSV,4,3,15,18,00,238,,19,16,070,38,20,74,062,41,22,23,136,28*76
$GPGSV,4,4,15,24,31,232,24,25,19,325,24,50,13,093,37*48
$GPGLL,0836.51089,N,07650.18039,E,075410.00,A,A*61
$GPRMC,075411.00,A,0836.51479,N,07650.17612,E,20.197,314.18,260424,,,A*58
$GPVTG,314.18,T,,M,20.197,N,37.404,K,A*3B
$GPGGA,075411.00,0836.51479,N,07650.17612,E,1,10,0.94,29.4,M,-95.0,M,,*4C
$GPGSA,A,3,20,05,11,12,24,22,19,06,13,15,,,1.58,0.94,1.27*0D
$GPGSV,4,1,15,05,63,180,24,06,10,032,23,11,39,005,35,12,47,334,28*77
$GPGSV,4,2,15,13,14,164,25,14,01,141,,15,12,194,25,17,03,090,*78
$GPGSV,4,3,15,18,00,238,,19,16,070,39,20,74,062,41,22,23,136,27*78
$GPGSV,4,4,15,24,31,232,23,25,19,325,,50,13,093,39*47
$GPGLL,0836.51479,N,07650.17612,E,075411.00,A,A*6B
$GPRMC,075412.00,A,0836.51858,N,07650.17179,E,19.683,313.09,260424,,,A*51
$GPVTG,313.09,T,,M,19.683,N,36.454,K,A*30
$GPGGA,075412.00,0836.51858,N,07650.17179,E,1,11,0.94,29.2,M,-95.0,M,,*4D
$GPGSA,A,3,20,05,11,12,24,22,19,06,13,25,15,,1.58,0.94,1.27*0A
$GPGSV,4,1,15,05,63,180,23,06,10,032,24,11,39,005,36,12,47,334,28*74
$GPGSV,4,2,15,13,14,164,23,14,01,141,,15,12,194,26,17,03,090,18*74
$GPGSV,4,3,15,18,00,238,19,19,16,070,38,20,74,062,40,22,23,136,26*71
$GPGSV,4,4,15,24,31,232,22,25,19,325,23,50,13,093,36*48
$GPGLL,0836.51858,N,07650.17179,E,075412.00,A,A*6D
$GPRMC,075413.00,A,0836.52210,N,07650.16710,E,19.861,310.09,260424,,,A*5C
$GPVTG,310.09,T,,M,19.861,N,36.782,K,A*39
$GPGGA,075413.00,0836.52210,N,07650.16710,E,1,11,0.79,28.5,M,-95.0,M,,*44
$GPGSA,A,3,20,05,11,12,24,22,19,06,13,25,15,,1.41,0.79,1.16*03
$GPGSV,4,1,15,05,63,180,24,06,10,032,23,11,39,005,36,12,47,334,28*74
$GPGSV,4,2,15,13,14,164,25,14,01,141,,15,12,194,25,17,03,090,22*78
$GPGSV,4,3,15,18,00,238,16,19,16,070,37,20,74,062,40,22,23,136,33*75
$GPGSV,4,4,15,24,31,232,26,25,19,325,24,50,13,093,33*4E
$GPGLL,0836.52210,N,07650.16710,E,075413.00,A,A*61
$GPRMC,075414.00,A,0836.52539,N,07650.16238,E,19.679,306.23,260424,,,A*50
$GPVTG,306.23,T,,M,19.679,N,36.446,K,A*3A
$GPGGA,075414.00,0836.52539,N,07650.16238,E,1,11,0.79,28.0,M,-95.0,M,,*45
$GPGSA,A,3,20,05,11,12,24,22,19,06,13,25,15,,1.41,0.79,1.16*03
$GPGSV,4,1,15,05,63,180,25,06,10,032,23,11,39,005,36,12,47,334,29*74
$GPGSV,4,2,15,13,14,164,25,14,01,141,,15,12,194,25,17,03,090,*78
$GPGSV,4,3,15,18,00,238,,19,16,070,27,20,74,062,42,22,23,136,26*75
$GPGSV,4,4,15,24,31,232,25,25,19,325,25,50,13,093,33*4C
$GPGLL,0836.52539,N,07650.16238,E,075414.00,A,A*65
$GPRMC,075415.00,A,0836.52868,N,07650.15823,E,18.068,311.29,260424,,,A*50
$GPVTG,311.29,T,,M,18.068,N,33.461,K,A*31
$GPGGA,075415.00,0836.52868,N,07650.15823,E,1,11,0.79,28.1,M,-95.0,M,,*4F
$GPGSA,A,3,20,05,11,12,24,22,19,06,13,25,15,,1.41,0.79,1.16*03
$GPGSV,4,1,15,05,63,180,31,06,10,032,34,11,39,005,35,12,47,334,30*7C
$GPGSV,4,2,15,13,14,164,25,14,01,141,,15,12,194,26,17,03,090,21*78
$GPGSV,4,3,15,18,00,238,,19,16,070,34,20,74,062,41,22,23,136,33*70
$GPGSV,4,4,15,24,31,232,25,25,19,325,25,50,13,093,31*4E
$GPGLL,0836.52868,N,07650.15823,E,075415.00,A,A*6E
$GPRMC,075416.00,A,0836.53188,N,07650.15489,E,15.794,316.85,260424,,,A*51
$GPVTG,316.85,T,,M,15.794,N,29.250,K,A*36
$GPGGA,075416.00,0836.53188,N,07650.15489,E,1,11,0.79,28.8,M,-95.0,M,,*4F
$GPGSA,A,3,20,05,11,12,24,22,19,06,13,25,15,,1.41,0.79,1.16*03
$GPGSV,4,1,15,05,63,180,30,06,10,032,30,11,39,005,36,12,47,334,26*7D
$GPGSV,4,2,15,13,14,164,26,14,01,141,,15,12,194,26,17,03,090,*78
$GPGSV,4,3,15,18,00,238,,19,16,070,34,20,74,062,40,22,23,136,29*7A
$GPGSV,4,4,15,24,31,232,24,25,19,325,25,50,13,093,30*4E
$GPGLL,0836.53188,N,07650.15489,E,075416.00,A,A*67
$GPRMC,075417.00,A,0836.53479,N,07650.15149,E,15.387,312.52,260424,,,A*5A
$GPVTG,312.52,T,,M,15.387,N,28.497,K,A*32
$GPGGA,075417.00,0836.53479,N,07650.15149,E,1,11,0.79,29.8,M,-95.0,M,,*4D
$GPGSA,A,3,20,05,11,12,24,22,19,06,13,25,15,,1.41,0.79,1.16*03
$GPGSV,4,1,15,05,63,180,29,06,10,032,25,11,39,005,36,12,47,334,28*7F
$GPGSV,4,2,15,13,14,164,26,14,01,141,,15,12,194,25,17,03,090,23*7A
$GPGSV,4,3,15,18,00,238,,19,16,070,42,20,74,062,40,22,23,136,27*75
$GPGSV,4,4,15,24,31,232,23,25,19,325,24,50,13,093,32*4A
$GPGLL,0836.53479,N,07650.15149,E,075417.00,A,A*64
$GPRMC,075418.00,A,0836.53789,N,07650.14778,E,16.497,312.87,260424,,,A*51
$GPVTG,312.87,T,,M,16.497,N,30.553,K,A*3F
$GPGGA,075418.00,0836.53789,N,07650.14778,E,1,11,0.79,29.8,M,-95.0,M,,*4B
$GPGSA,A,3,20,05,11,12,24,22,19,06,13,25,15,,1.41,0.79,1.16*03
$GPGSV,4,1,15,05,63,180,29,06,10,032,32,11,39,005,40,12,47,334,29*79
$GPGSV,4,2,15,13,14,164,24,14,01,141,,15,12,194,25,17,03,090,23*78
$GPGSV,4,3,15,18,00,238,23,19,16,070,42,20,74,062,40,22,23,136,27*74
$GPGSV,4,4,15,24,31,232,22,25,19,325,26,50,13,093,34*4F
$GPGLL,0836.53789,N,07650.14778,E,075418.00,A,A*62
$GPRMC,075419.00,A,0836.54105,N,07650.14388,E,16.962,312.26,260424,,,A*52
$GPVTG,312.26,T,,M,16.962,N,31.414,K,A*30
$GPGGA,075419.00,0836.54105,N,07650.14388,E,1,11,0.79,29.6,M,-95.0,M,,*4A
$GPGSA,A,3,20,05,11,12,24,22,19,06,13,25,15,,1.41,0.79,1.16*03
$GPGSV,4,1,15,05,63,180,29,06,10,032,35,11,39,005,37,12,47,334,30*76
$GPGSV,4,2,15,13,14,164,24,14,01,141,,15,12,194,25,17,03,090,21*7A
$GPGSV,4,3,15,18,00,238,22,19,16,070,37,20,74,062,39,22,23,136,33*7C
$GPGSV,4,4,15,24,31,232,28,25,19,325,25,50,13,093,33*41
$GPGLL,0836.54105,N,07650.14388,E,075419.00,A,A*6D
$GPRMC,075420.00,A,0836.54401,N,07650.13994,E,16.806,308.66,260424,,,A*55
$GPVTG,308.66,T,,M,16.806,N,31.125,K,A*3B
$GPGGA,075420.00,0836.54401,N,07650.13994,E,1,11,0.79,29.8,M,-95.0,M,,*4F
$GPGSA,A,3,20,05,11,12,24,22,19,06,13,25,15,,1.41,0.79,1.16*03
$GPGSV,4,1,15,05,63,180,29,06,10,032,26,11,39,005,34,12,47,334,30*77
$GPGSV,4,2,15,13,14,164,24,14,01,141,,15,12,194,27,17,03,090,19*73
$GPGSV,4,3,15,18,00,238,,19,16,070,30,20,74,062,40,22,23,136,33*75
$GPGSV,4,4,15,24,31,232,28,25,19,325,24,50,13,093,35*46
$GPGLL,0836.54401,N,07650.13994,E,075420.00,A,A*66
$GPRMC,075421.00,A,0836.54702,N,07650.13613,E,16.402,312.62,260424,,,A*53
$GPVTG,312.62,T,,M,16.402,N,30.377,K,A*38
$GPGGA,075421.00,0836.54702,N,07650.13613,E,1,11,0.79,29.9,M,-95.0,M,,*4F
$GPGSA,A,3,20,05,11,12,24,22,19,06,13,25,15,,1.41,0.79,1.16*03
$GPGSV,4,1,15,05,63,180,29,06,10,032,32,11,39,006,36,12,47,334,31*72
$GPGSV,4,2,15,13,14,164,25,14,01,141,,15,12,194,26,17,03,090,*7B
$GPGSV,4,3,15,18,00,238,,19,16,070,43,20,74,062,41,22,23,136,29*7B
$GPGSV,4,4,15,24,31,232,28,25,19,325,24,50,13,093,31*42
$GPGLL,0836.54702,N,07650.13613,E,075421.00,A,A*67
$GPRMC,075422.00,A,0836.55012,N,07650.13242,E,16.298,312.73,260424,,,A*52
$GPVTG,312.73,T,,M,16.298,N,30.184,K,A*33
$GPGGA,075422.00,0836.55012,N,07650.13242,E,1,11,0.79,29.6,M,-95.0,M,,*44
$GPGSA,A,3,20,05,11,12,24,22,19,06,13,25,15,,1.41,0.79,1.16*03
$GPGSV,4,1,15,05,63,180,28,06,10,032,39,11,39,006,37,12,48,334,34*73
$GPGSV,4,2,15,13,14,164,25,14,01,141,,15,12,194,25,17,03,090,*78
$GPGSV,4,3,15,18,00,238,,19,16,070,36,20,74,062,40,22,23,136,34*74
$GPGSV,4,4,15,24,31,232,24,25,19,325,30,50,13,093,34*4E
$GPGLL,0836.55012,N,07650.13242,E,075422.00,A,A*63
$GPRMC,075423.00,A,0836.55319,N,07650.12876,E,15.749,312.49,260424,,,A*54
$GPVTG,312.49,T,,M,15.749,N,29.168,K,A*3A
$GPGGA,075423.00,0836.55319,N,07650.12876,E,1,11,0.79,29.4,M,-95.0,M,,*43
$GPGSA,A,3,20,05,11,12,24,22,19,06,13,25,15,,1.41,0.79,1.16*03
$GPGSV,4,1,15,05,63,180,28,06,10,032,30,11,39,006,37,12,48,334,34*7A
$GPGSV,4,2,15,13,14,164,25,14,01,141,,15,12,194,24,17,03,090,*79
$GPGSV,4,3,15,18,00,238,,19,16,070,35,20,74,062,42,22,23,136,30*71
$GPGSV,4,4,15,24,31,232,23,25,19,325,33,50,13,093,34*4A
$GPGLL,0836.55319,N,07650.12876,E,075423.00,A,A*66
$GPRMC,075424.00,A,0836.55614,N,07650.12500,E,15.823,310.58,260424,,,A*56
$GPVTG,310.58,T,,M,15.823,N,29.305,K,A*32
$GPGGA,075424.00,0836.55614,N,07650.12500,E,1,11,0.79,28.9,M,-95.0,M,,*4C
$GPGSA,A,3,20,05,11,12,24,22,19,06,13,25,15,,1.41,0.79,1.16*03
$GPGSV,4,1,15,05,63,180,33,06,10,032,29,11,39,006,35,12,48,334,34*7A
$GPGSV,4,2,15,13,14,164,25,14,00,141,,15,12,194,23,17,03,090,19*77
$GPGSV,4,3,15,18,00,238,18,19,16,070,39,20,74,062,41,22,23,136,30*77
$GPGSV,4,4,15,24,31,232,22,25,19,325,33,50,13,093,34*4B
$GPGLL,0836.55614,N,07650.12500,E,075424.00,A,A*65
$GPRMC,075425.00,A,0836.55908,N,07650.12121,E,16.059,310.17,260424,,,A*5F
$GPVTG,310.17,T,,M,16.059,N,29.741,K,A*3B
$GPGGA,075425.00,0836.55908,N,07650.12121,E,1,11,0.79,28.3,M,-95.0,M,,*42
$GPGSA,A,3,20,05,11,12,24,22,19,06,13,25,15,,1.41,0.79,1.16*03
$GPGSV,4,1,15,05,63,180,28,06,10,032,37,11,39,006,35,12,48,334,34*7F
$GPGSV,4,2,15,13,14,164,24,14,00,141,,15,12,194,22,17,03,090,*7F
$GPGSV,4,3,15,18,00,238,15,19,16,070,37,20,74,062,41,22,23,136,31*75
$GPGSV,4,4,15,24,31,232,22,25,19,325,32,50,13,093,35*4B
$GPGLL,0836.55908,N,07650.12121,E,075425.00,A,A*61
$GPRMC,075426.00,A,0836.56190,N,07650.11751,E,15.707,308.88,260424,,,A*54
$GPVTG,308.88,T,,M,15.707,N,29.090,K,A*30
$GPGGA,075426.00,0836.56190,N,07650.11751,E,1,11,0.79,27.5,M,-95.0,M,,*40
$GPGSA,A,3,20,05,11,12,24,22,19,06,13,25,15,,1.41,0.79,1.16*03
$GPGSV,4,1,15,05,63,180,27,06,10,032,34,11,39,006,34,12,48,334,35*73
$GPGSV,4,2,15,13,14,164,23,14,00,141,,15,12,194,23,17,03,090,*79
$GPGSV,4,3,15,18,00,238,10,19,16,070,39,20,74,062,42,22,23,136,30*7C
$GPGSV,4,4,15,24,31,232,22,25,19,325,32,50,13,093,37*49
$GPGLL,0836.56190,N,07650.11751,E,075426.00,A,A*6A
$GPRMC,075427.00,A,0836.56473,N,07650.11397,E,15.726,309.74,260424,,,A*52
$GPVTG,309.74,T,,M,15.726,N,29.124,K,A*3F
$GPGGA,075427.00,0836.56473,N,07650.11397,E,1,11,0.79,27.2,M,-95.0,M,,*40
$GPGSA,A,3,20,05,11,12,24,22,19,06,13,25,15,,1.41,0.79,1.16*03
$GPGSV,4,1,15,05,63,180,26,06,10,032,30,11,39,006,34,12,48,334,31*72
$GPGSV,4,2,15,13,14,164,22,14,00,141,,15,12,194,23,17,03,090,*78
$GPGSV,4,3,15,18,00,238,08,19,16,070,43,20,74,062,42,22,23,136,30*78
$GPGSV,4,4,15,24,31,232,21,25,19,325,28,50,13,093,37*41
$GPGLL,0836.56473,N,07650.11397,E,075427.00,A,A*6D
$GPRMC,075428.00,A,0836.56767,N,07650.11046,E,15.746,311.46,260424,,,A*5A
$GPVTG,311.46,T,,M,15.746,N,29.162,K,A*33
$GPGGA,075428.00,0836.56767,N,07650.11046,E,1,11,0.79,26.8,M,-95.0,M,,*4D
$GPGSA,A,3,20,05,11,12,24,22,19,06,13,25,15,,1.41,0.79,1.16*03
$GPGSV,4,1,15,05,63,180,25,06,10,032,36,11,39,006,39,12,48,334,27*7D
$GPGSV,4,2,15,13,14,164,21,14,00,141,,15,12,194,22,17,03,090,*7A
$GPGSV,4,3,15,18,01,238,08,19,16,070,41,20,74,062,41,22,23,136,36*7E
$GPGSV,4,4,15,24,31,232,20,25,19,325,32,50,13,093,38*44
$GPGLL,0836.56767,N,07650.11046,E,075428.00,A,A*6B
$GPRMC,075429.00,A,0836.57060,N,07650.10699,E,15.900,310.83,260424,,,A*5B
$GPVTG,310.83,T,,M,15.900,N,29.447,K,A*35
$GPGGA,075429.00,0836.57060,N,07650.10699,E,1,11,0.79,26.6,M,-95.0,M,,*46
$GPGSA,A,3,20,05,11,12,24,22,19,06,13,25,15,,1.41,0.79,1.16*03
$GPGSV,4,1,15,05,63,180,24,06,10,032,33,11,39,006,39,12,48,334,27*79
$GPGSV,4,2,15,13,14,164,21,14,00,141,,15,12,194,21,17,03,090,*79
$GPGSV,4,3,15,18,01,238,08,19,16,071,42,20,74,062,41,22,23,136,38*72
$GPGSV,4,4,15,24,31,232,21,25,19,325,28,50,13,093,37*41
$GPGLL,0836.57060,N,07650.10699,E,075429.00,A,A*6E
$GPRMC,075430.00,A,0836.57339,N,07650.10369,E,14.828,311.55,260424,,,A*56
$GPVTG,311.55,T,,M,14.828,N,27.461,K,A*3F
$GPGGA,075430.00,0836.57339,N,07650.10369,E,1,11,0.79,26.3,M,-95.0,M,,*4E
$GPGSA,A,3,20,05,11,12,24,22,19,06,13,25,15,,1.41,0.79,1.16*03
$GPGSV,4,1,15,05,63,180,25,06,10,032,36,11,39,006,30,12,48,334,26*75
$GPGSV,4,2,15,13,14,164,22,14,00,141,,15,12,194,20,17,03,090,*7B
$GPGSV,4,3,15,18,01,238,08,19,16,071,33,20,74,061,41,22,23,136,36*79
$GPGSV,4,4,15,24,31,232,24,25,19,325,28,50,13,093,39*4A
$GPGLL,0836.57339,N,07650.10369,E,075430.00,A,A*63
$GPRMC,075431.00,A,0836.57613,N,07650.10039,E,14.944,310.48,260424,,,A*5A
$GPVTG,310.48,T,,M,14.944,N,27.676,K,A*3D
$GPGGA,075431.00,0836.57613,N,07650.10039,E,1,11,0.79,26.3,M,-95.0,M,,*44
$GPGSA,A,3,20,05,11,12,24,22,19,06,13,25,15,,1.41,0.79,1.16*03
$GPGSV,4,1,15,05,63,180,29,06,10,032,26,11,39,006,30,12,48,334,26*78
$GPGSV,4,2,15,13,14,164,22,14,00,141,15,15,12,194,21,17,03,090,*7E
$GPGSV,4,3,15,18,01,238,08,19,16,071,39,20,74,061,41,22,23,136,34*71
$GPGSV,4,4,15,24,31,232,24,25,19,325,29,50,13,093,37*45
$GPGLL,0836.57613,N,07650.10039,E,075431.00,A,A*69
$GPRMC,075432.00,A,0836.57892,N,07650.09686,E,15.565,309.84,260424,,,A*52
$GPVTG,309.84,T,,M,15.565,N,28.827,K,A*3E
$GPGGA,075432.00,0836.57892,N,07650.09686,E,1,11,0.79,25.8,M,-95.0,M,,*42
$GPGSA,A,3,20,05,11,12,24,22,19,06,13,25,15,,1.41,0.79,1.16*03
$GPGSV,4,1,15,05,63,180,29,06,10,032,25,11,39,006,31,12,48,334,31*7C
$GPGSV,4,2,15,13,14,164,23,14,00,141,15,15,12,194,22,17,03,090,*7C
$GPGSV,4,3,15,18,01,238,26,19,16,071,37,20,74,061,41,22,23,137,34*72
$GPGSV,4,4,15,24,31,232,25,25,19,325,32,50,13,093,35*4C
$GPGLL,0836.57892,N,07650.09686,E,075432.00,A,A*67
$GPRMC,075433.00,A,0836.58204,N,07650.09392,E,14.993,315.12,260424,,,A*5F
$GPVTG,315.12,T,,M,14.993,N,27.767,K,A*3C
$GPGGA,075433.00,0836.58204,N,07650.09392,E,1,11,0.79,25.5,M,-95.0,M,,*44
$GPGSA,A,3,20,05,11,12,24,22,19,06,13,25,15,,1.41,0.79,1.16*03
$GPGSV,4,1,15,05,63,180,21,06,10,032,24,11,39,006,35,12,48,334,30*70
$GPGSV,4,2,15,13,14,164,24,14,00,141,14,15,12,194,29,17,03,090,*71
$GPGSV,4,3,15,18,01,238,25,19,16,071,26,20,74,061,41,22,23,137,33*76
$GPGSV,4,4,15,24,31,232,25,25,19,325,26,50,13,093,35*49
$GPGLL,0836.58204,N,07650.09392,E,075433.00,A,A*6C
$GPRMC,075434.00,A,0836.58500,N,07650.09066,E,15.216,313.34,260424,,,A*56
$GPVTG,313.34,T,,M,15.216,N,28.181,K,A*38
$GPGGA,075434.00,0836.58500,N,07650.09066,E,1,11,0.79,25.1,M,-95.0,M,,*4C
$GPGSA,A,3,20,05,11,12,24,22,19,06,13,25,15,,1.41,0.79,1.16*03
$GPGSV,4,1,15,05,63,180,29,06,10,032,25,11,39,006,37,12,48,334,31*7A
$GPGSV,4,2,15,13,14,164,23,14,00,141,14,15,12,194,27,17,03,090,19*70
$GPGSV,4,3,15,18,01,238,21,19,16,071,25,20,74,061,41,22,23,137,33*71
$GPGSV,4,4,15,24,30,231,27,25,19,325,27,50,13,093,35*48
$GPGLL,0836.58500,N,07650.09066,E,075434.00,A,A*60
$GPRMC,075435.00,A,0836.58779,N,07650.08808,E,12.605,317.10,260424,,,A*59
$GPVTG,317.10,T,,M,12.605,N,23.344,K,A*3B
$GPGGA,075435.00,0836.58779,N,07650.08808,E,1,11,0.79,24.2,M,-95.0,M,,*42
$GPGSA,A,3,20,05,11,12,24,22,19,06,13,25,15,,1.41,0.79,1.16*03
$GPGSV,4,1,15,05,63,180,28,06,10,032,25,11,39,006,31,12,48,334,30*7C
$GPGSV,4,2,15,13,14,164,22,14,00,141,11,15,12,194,26,17,03,090,*7D
$GPGSV,4,3,15,18,01,238,19,19,16,071,25,20,74,061,41,22,23,137,28*70
$GPGSV,4,4,15,24,30,231,27,25,19,325,27,50,13,093,38*45
$GPGLL,0836.58779,N,07650.08808,E,075435.00,A,A*6C
$GPRMC,075436.00,A,0836.59048,N,07650.08486,E,14.740,311.25,260424,,,A*52
$GPVTG,311.25,T,,M,14.740,N,27.299,K,A*38
$GPGGA,075436.00,0836.59048,N,07650.08486,E,1,11,0.79,23.4,M,-95.0,M,,*4E
$GPGSA,A,3,20,05,11,12,24,22,19,06,13,25,15,,1.41,0.79,1.16*03
$GPGSV,4,1,15,05,63,180,28,06,10,032,25,11,39,006,34,12,48,334,30*79
$GPGSV,4,2,15,13,14,164,23,14,00,141,09,15,12,194,25,17,03,090,*76
$GPGSV,4,3,15,18,01,238,12,19,16,071,27,20,74,061,41,22,23,137,29*78
$GPGSV,4,4,15,24,30,231,27,25,19,325,27,50,13,093,34*49
$GPGLL,0836.59048,N,07650.08486,E,075436.00,A,A*61
$GPRMC,075437.00,A,0836.59323,N,07650.08162,E,14.545,312.95,260424,,,A*5D
$GPVTG,312.95,T,,M,14.545,N,26.938,K,A*36
$GPGGA,075437.00,0836.59323,N,07650.08162,E,1,11,0.79,23.3,M,-95.0,M,,*49
$GPGSA,A,3,20,05,11,12,24,22,19,06,13,25,15,,1.41,0.79,1.16*03
$GPGSV,4,1,15,05,63,180,27,06,10,032,25,11,39,006,30,12,48,334,30*72
$GPGSV,4,2,15,13,14,164,22,14,00,141,08,15,12,194,24,17,03,090,*77
$GPGSV,4,3,15,18,01,238,,19,16,071,33,20,74,061,41,22,23,137,28*7F
$GPGSV,4,4,15,24,30,231,27,25,19,325,26,50,13,093,33*4F
$GPGLL,0836.59323,N,07650.08162,E,075437.00,A,A*61
$GPRMC,075438.00,A,0836.59593,N,07650.07814,E,15.044,310.66,260424,,,A*53
$GPVTG,310.66,T,,M,15.044,N,27.862,K,A*32
$GPGGA,075438.00,0836.59593,N,07650.07814,E,1,11,0.79,22.8,M,-95.0,M,,*46
$GPGSA,A,3,20,05,11,12,24,22,19,06,13,25,15,,1.41,0.79,1.16*03
$GPGSV,4,1,15,05,63,180,26,06,10,032,24,11,39,006,34,12,48,334,31*77
$GPGSV,4,2,15,13,14,164,22,14,00,141,08,15,12,194,25,17,03,090,*76
$GPGSV,4,3,15,18,01,238,,19,16,071,29,20,74,061,41,22,23,137,35*78
$GPGSV,4,4,15,24,30,231,29,25,19,325,26,50,13,093,36*44
$GPGLL,0836.59593,N,07650.07814,E,075438.00,A,A*64
$GPRMC,075439.00,A,0836.59869,N,07650.07479,E,14.740,312.91,260424,,,A*55
$GPVTG,312.91,T,,M,14.740,N,27.299,K,A*34
$GPGGA,075439.00,0836.59869,N,07650.07479,E,1,11,0.79,22.6,M,-95.0,M,,*46
$GPGSA,A,3,20,05,11,12,24,22,19,06,13,25,15,,1.41,0.79,1.16*03
$GPGSV,4,1,15,05,63,180,26,06,10,032,34,11,39,006,34,12,48,334,32*75
$GPGSV,4,2,15,13,14,164,23,14,00,141,08,15,12,194,26,17,03,090,*74
$GPGSV,4,3,15,18,01,238,20,19,16,071,31,20,74,061,41,22,23,137,27*70
$GPGSV,4,4,15,24,30,231,27,25,19,325,25,50,13,093,38*47
$GPGLL,0836.59869,N,07650.07479,E,075439.00,A,A*6A
$GPRMC,075440.00,A,0836.60129,N,07650.07174,E,13.298,313.36,260424,,,A*5F
$GPVTG,313.36,T,,M,13.298,N,24.628,K,A*32
$GPGGA,075440.00,0836.60129,N,07650.07174,E,1,11,0.79,22.3,M,-95.0,M,,*42
$GPGSA,A,3,20,05,11,12,24,22,19,06,13,25,15,,1.41,0.79,1.16*03
$GPGSV,4,1,15,05,63,180,24,06,10,032,24,11,39,006,37,12,48,334,26*70
$GPGSV,4,2,15,13,14,164,24,14,00,141,,15,12,194,27,17,03,090,*7A
$GPGSV,4,3,15,18,01,238,23,19,16,071,41,20,74,061,41,22,23,137,27*74
$GPGSV,4,4,15,24,30,231,26,25,19,325,25,50,13,093,34*4A
$GPGLL,0836.60129,N,07650.07174,E,075440.00,A,A*6B
$GPRMC,075441.00,A,0836.60421,N,07650.06841,E,15.467,314.30,260424,,,A*5C
$GPVTG,314.30,T,,M,15.467,N,28.645,K,A*34
$GPGGA,075441.00,0836.60421,N,07650.06841,E,1,11,0.79,22.6,M,-95.0,M,,*45
$GPGSA,A,3,20,05,11,12,24,22,19,06,13,25,15,,1.41,0.79,1.16*03
$GPGSV,4,1,15,05,63,180,31,06,10,032,23,11,39,006,34,12,48,334,31*76
$GPGSV,4,2,15,13,14,164,26,14,00,141,,15,12,194,26,17,03,090,21*7A
$GPGSV,4,3,15,18,01,238,19,19,16,071,33,20,74,061,41,22,23,137,28*77
$GPGSV,4,4,15,24,30,231,27,25,19,325,26,50,13,093,34*48
$GPGLL,0836.60421,N,07650.06841,E,075441.00,A,A*69
$GPRMC,075442.00,A,0836.60708,N,07650.06520,E,14.486,314.76,260424,,,A*51
$GPVTG,314.76,T,,M,14.486,N,26.827,K,A*3C
$GPGGA,075442.00,0836.60708,N,07650.06520,E,1,11,0.79,22.7,M,-95.0,M,,*45
$GPGSA,A,3,20,05,11,12,24,22,19,06,13,25,15,,1.41,0.79,1.16*03
$GPGSV,4,1,15,05,63,180,25,06,10,032,25,11,39,006,33,12,48,334,31*72
$GPGSV,4,2,15,13,14,164,25,14,00,141,,15,12,194,24,17,03,090,21*7B
$GPGSV,4,3,15,18,01,238,17,19,16,071,30,20,74,061,41,22,23,137,32*71
$GPGSV,4,4,15,24,30,231,27,25,19,325,28,50,13,093,34*46
$GPGLL,0836.60708,N,07650.06520,E,075442.00,A,A*68
$GPRMC,075443.00,A,0836.60976,N,07650.06170,E,14.923,311.37,260424,,,A*54
$GPVTG,311.37,T,,M,14.923,N,27.637,K,A*30
$GPGGA,075443.00,0836.60976,N,07650.06170,E,1,11,0.79,22.3,M,-95.0,M,,*46
$GPGSA,A,3,20,05,11,12,24,22,19,06,13,25,15,,1.41,0.79,1.16*03
$GPGSV,4,1,15,05,63,180,31,06,10,032,25,11,39,006,28,12,48,334,31*7D
$GPGSV,4,2,15,13,14,164,25,14,00,141,,15,12,194,24,17,03,090,*78
$GPGSV,4,3,15,18,01,238,12,19,16,071,33,20,74,061,40,22,23,137,32*76
$GPGSV,4,4,15,24,30,231,28,25,19,325,29,50,13,093,36*4A
$GPGLL,0836.60976,N,07650.06170,E,075443.00,A,A*6F
$GPRMC,075444.00,A,0836.61181,N,07650.05793,E,14.348,301.33,260424,,,A*58
$GPVTG,301.33,T,,M,14.348,N,26.573,K,A*30
$GPGGA,075444.00,0836.61181,N,07650.05793,E,1,11,0.79,22.8,M,-95.0,M,,*43
$GPGSA,A,3,20,05,11,12,24,22,19,06,13,25,15,,1.41,0.79,1.16*03
$GPGSV,4,1,15,05,63,180,24,06,10,032,24,11,39,006,33,12,48,334,31*72
$GPGSV,4,2,15,13,14,164,25,14,00,141,,15,12,194,25,17,03,090,22*79
$GPGSV,4,3,15,18,01,238,11,19,16,071,30,20,74,061,40,22,23,137,27*72
$GPGSV,4,4,15,24,30,231,27,25,19,325,29,50,13,093,37*44
$GPGLL,0836.61181,N,07650.05793,E,075444.00,A,A*61
$GPRMC,075445.00,A,0836.61392,N,07650.05476,E,12.471,306.30,260424,,,A*5E
$GPVTG,306.30,T,,M,12.471,N,23.096,K,A*34
$GPGGA,075445.00,0836.61392,N,07650.05476,E,1,11,0.79,22.3,M,-95.0,M,,*41
$GPGSA,A,3,20,05,11,12,24,22,19,06,13,25,15,,1.41,0.79,1.16*03
$GPGSV,4,1,15,05,63,180,31,06,10,032,24,11,39,006,33,12,48,334,30*77
$GPGSV,4,2,15,13,14,164,25,14,00,141,,15,12,194,25,17,03,090,*79
$GPGSV,4,3,15,18,01,238,14,19,16,071,29,20,74,061,40,22,23,137,26*7E
$GPGSV,4,4,15,24,30,231,28,25,19,325,29,50,13,093,37*4B
$GPGLL,0836.61392,N,07650.05476,E,075445.00,A,A*68
$GPRMC,075446.00,A,0836.61646,N,07650.05171,E,13.582,311.27,260424,,,A*5F
$GPVTG,311.27,T,,M,13.582,N,25.153,K,A*36
$GPGGA,075446.00,0836.61646,N,07650.05171,E,1,11,0.79,22.0,M,-95.0,M,,*4F
$GPGSA,A,3,20,05,11,12,24,22,19,06,13,25,15,,1.41,0.79,1.16*03
$GPGSV,4,1,15,05,63,180,25,06,10,032,24,11,39,006,28,12,48,334,30*78
$GPGSV,4,2,15,13,14,164,26,14,00,141,,15,12,194,27,17,03,090,*78
$GPGSV,4,3,15,18,01,238,,19,16,071,29,20,74,061,40,22,23,137,32*7E
$GPGSV,4,4,15,24,30,231,27,25,19,325,33,50,13,093,30*48
$GPGLL,0836.61646,N,07650.05171,E,075446.00,A,A*65
$GPRMC,075447.00,A,0836.61931,N,07650.04858,E,14.580,314.30,260424,,,A*54
$GPVTG,314.30,T,,M,14.580,N,27.002,K,A*37
$GPGGA,075447.00,0836.61931,N,07650.04858,E,1,11,0.79,21.6,M,-95.0,M,,*47
$GPGSA,A,3,20,05,11,12,24,22,19,06,13,25,15,,1.41,0.79,1.16*03
$GPGSV,4,1,15,05,63,180,26,06,10,032,27,11,39,006,28,12,48,334,28*71
$GPGSV,4,2,15,13,14,164,26,14,00,141,17,15,12,194,25,17,03,090,*7C
$GPGSV,4,3,15,18,01,238,,19,16,071,30,20,74,061,40,22,23,137,27*72
$GPGSV,4,4,15,24,30,231,27,25,19,325,32,50,13,093,31*48
$GPGLL,0836.61931,N,07650.04858,E,075447.00,A,A*68
$GPRMC,075448.00,A,0836.62229,N,07650.04565,E,14.078,316.95,260424,,,A*56
$GPVTG,316.95,T,,M,14.078,N,26.072,K,A*3E
$GPGGA,075448.00,0836.62229,N,07650.04565,E,1,11,0.79,21.1,M,-95.0,M,,*4D
$GPGSA,A,3,20,05,11,12,24,22,19,06,13,25,15,,1.41,0.79,1.16*03
$GPGSV,4,1,15,05,63,180,31,06,10,032,27,11,39,006,33,12,48,334,29*7C
$GPGSV,4,2,15,13,14,164,25,14,00,141,15,15,12,194,24,17,03,090,22*7C
$GPGSV,4,3,15,18,01,238,,19,16,071,30,20,74,061,40,22,23,137,27*72
$GPGSV,4,4,15,24,30,231,26,25,19,325,32,50,13,093,37*4F
$GPGLL,0836.62229,N,07650.04565,E,075448.00,A,A*65
$GPRMC,075449.00,A,0836.62450,N,07650.04252,E,12.718,307.66,260424,,,A*57
$GPVTG,307.66,T,,M,12.718,N,23.555,K,A*30
$GPGGA,075449.00,0836.62450,N,07650.04252,E,1,11,0.79,20.6,M,-95.0,M,,*41
$GPGSA,A,3,20,05,11,12,24,22,19,06,13,25,15,,1.41,0.79,1.16*03
$GPGSV,4,1,15,05,63,180,30,06,10,032,26,11,39,006,35,12,48,334,28*7B
