$GPRMC,105259.00,A,0949.14187,N,07627.41984,E,26.407,351.30,260424,,,A*5A
$GPVTG,351.30,T,,M,26.407,N,48.905,K,A*3E
$GPGGA,105259.00,0949.14187,N,07627.41984,E,1,03,3.32,-0.8,M,-94.3,M,,*5A
$GPGSA,A,2,05,13,15,,,,,,,,,,3.47,3.32,1.00*03
$GPGSV,3,1,11,01,,,27,05,29,022,33,10,,,35,12,,,24*43
$GPGSV,3,2,11,13,33,076,41,15,63,112,38,23,,,33,24,,,23*70
$GPGSV,3,3,11,25,47,222,28,29,,,28,50,31,098,42*74
$GPGLL,0949.14187,N,07627.41984,E,105259.00,A,A*68
$GPRMC,105300.00,A,0949.14916,N,07627.41869,E,26.645,350.47,260424,,,A*50
$GPVTG,350.47,T,,M,26.645,N,49.347,K,A*36
$GPGGA,105300.00,0949.14916,N,07627.41869,E,1,03,3.32,-1.4,M,-94.3,M,,*58
$GPGSA,A,2,05,13,15,,,,,,,,,,3.47,3.32,1.00*03
$GPGSV,4,1,13,01,,,27,05,29,022,33,09,,,23,10,,,35*4B
$GPGSV,4,2,13,11,,,27,12,,,24,13,33,076,41,15,63,112,40*7C
$GPGSV,4,3,13,23,,,34,24,,,23,25,47,222,28,29,,,28*40
$GPGSV,4,4,13,50,31,098,42*4B
$GPGLL,0949.14916,N,07627.41869,E,105300.00,A,A*67
$GPRMC,105301.00,A,0949.15648,N,07627.41748,E,26.659,349.95,260424,,,A*52
$GPVTG,349.95,T,,M,26.659,N,49.373,K,A*3B
$GPGGA,105301.00,0949.15648,N,07627.41748,E,1,03,3.32,-1.0,M,-94.3,M,,*54
$GPGSA,A,2,05,13,15,,,,,,,,,,3.47,3.32,1.00*03
$GPGSV,4,1,13,01,,,27,05,29,022,32,09,,,22,10,,,34*4A
$GPGSV,4,2,13,11,,,24,12,,,23,13,33,076,42,15,63,112,38*74
$GPGSV,4,3,13,23,,,33,24,,,22,25,47,222,29,29,,,27*48
$GPGSV,4,4,13,50,31,098,41*48
$GPGLL,0949.15648,N,07627.41748,E,105301.00,A,A*6F
$GPRMC,105302.00,A,0949.16363,N,07627.41616,E,25.948,348.37,260424,,,D*54
$GPVTG,348.37,T,,M,25.948,N,48.056,K,D*3E
$GPGGA,105302.00,0949.16363,N,07627.41616,E,2,03,3.32,-1.7,M,-94.3,M,,0000*56
$GPGSA,A,2,05,13,15,,,,,,,,,,3.47,3.32,1.00*03
$GPGSV,4,1,13,01,,,27,05,29,022,32,09,,,22,10,,,34*4A
$GPGSV,4,2,13,11,,,20,12,,,23,13,33,076,40,15,63,112,38*72
$GPGSV,4,3,13,23,,,33,24,,,22,25,47,222,28,29,,,27*49
$GPGSV,4,4,13,50,31,098,41*48
$GPGLL,0949.16363,N,07627.41616,E,105302.00,A,D*6C
$GPRMC,105303.00,A,0949.17087,N,07627.41467,E,26.651,348.86,260424,,,D*57
$GPVTG,348.86,T,,M,26.651,N,49.357,K,D*33
$GPGGA,105303.00,0949.17087,N,07627.41467,E,2,03,3.32,-2.0,M,-94.3,M,,0000*5F
$GPGSA,A,2,05,13,15,,,,,,,,,,3.47,3.32,1.00*03
$GPGSV,4,1,13,01,,,27,05,29,022,35,09,,,23,10,,,35*4D
$GPGSV,4,2,13,11,,,12,12,,,24,13,33,076,42,15,63,112,38*76
$GPGSV,4,3,13,23,,,33,24,,,22,25,47,222,28,29,,,32*4D
$GPGSV,4,4,13,50,31,098,43*4A
$GPGLL,0949.17087,N,07627.41467,E,105303.00,A,D*61
$GPRMC,105304.00,A,0949.17794,N,07627.41348,E,26.445,350.32,260424,,,D*5E
$GPVTG,350.32,T,,M,26.445,N,48.977,K,D*3B
$GPGGA,105304.00,0949.17794,N,07627.41348,E,2,04,3.32,-2.6,M,-94.3,M,,0000*56
$GPGSA,A,2,23,05,13,15,,,,,,,,,3.47,3.32,1.00*02
$GPGSV,3,1,12,01,,,25,05,29,022,38,09,,,22,10,,,34*44
$GPGSV,3,2,12,12,,,25,13,33,076,41,15,63,112,40,23,37,249,28*4E
$GPGSV,3,3,12,24,,,22,25,47,222,27,29,,,26,50,31,098,41*73
$GPGLL,0949.17794,N,07627.41348,E,105304.00,A,D*69
$GPRMC,105305.00,A,0949.18524,N,07627.41225,E,26.325,350.35,260424,,,D*55
$GPVTG,350.35,T,,M,26.325,N,48.753,K,D*35
$GPGGA,105305.00,0949.18524,N,07627.41225,E,2,04,3.32,-2.3,M,-94.3,M,,0000*5E
$GPGSA,A,2,23,05,13,15,,,,,,,,,3.47,3.32,1.00*02
$GPGSV,3,1,12,01,,,24,05,29,022,37,09,,,21,10,,,29*45
$GPGSV,3,2,12,12,,,25,13,33,076,39,15,63,112,38,23,37,249,27*41
$GPGSV,3,3,12,24,,,23,25,47,222,26,29,,,27,50,31,098,40*73
$GPGLL,0949.18524,N,07627.41225,E,105305.00,A,D*64
$GPRMC,105306.00,A,0949.19249,N,07627.41110,E,26.373,350.06,260424,,,D*5D
$GPVTG,350.06,T,,M,26.373,N,48.843,K,D*38
$GPGGA,105306.00,0949.19249,N,07627.41110,E,2,04,3.32,-2.1,M,-94.3,M,,0000*57
$GPGSA,A,2,23,05,13,15,,,,,,,,,3.47,3.32,1.00*02
$GPGSV,3,1,12,01,,,22,05,29,022,35,09,,,20,10,,,25*4C
$GPGSV,3,2,12,12,,,26,13,33,076,39,15,63,112,38,23,37,249,26*43
$GPGSV,3,3,12,24,,,24,25,47,222,25,29,,,28,50,31,098,37*78
$GPGLL,0949.19249,N,07627.41110,E,105306.00,A,D*6F
$GPRMC,105307.00,A,0949.19958,N,07627.40954,E,25.629,346.56,260424,,,D*55
$GPVTG,346.56,T,,M,25.629,N,47.465,K,D*34
$GPGGA,105307.00,0949.19958,N,07627.40954,E,2,04,3.32,-1.2,M,-94.3,M,,0000*54
$GPGSA,A,2,23,05,13,15,,,,,,,,,3.47,3.32,1.00*02
$GPGSV,3,1,11,01,,,24,05,29,022,36,10,,,30,12,,,27*43
$GPGSV,3,2,11,13,33,076,42,15,63,112,34,23,37,249,26,24,,,23*40
$GPGSV,3,3,11,25,47,222,28,29,,,29,50,31,098,40*77
$GPGLL,0949.19958,N,07627.40954,E,105307.00,A,D*6C
$GPRMC,105308.00,A,0949.20663,N,07627.40814,E,26.080,348.17,260424,,,D*5F
$GPVTG,348.17,T,,M,26.080,N,48.300,K,D*32
$GPGGA,105308.00,0949.20663,N,07627.40814,E,2,04,3.32,-1.1,M,-94.3,M,,0000*50
$GPGSA,A,2,23,05,13,15,,,,,,,,,3.47,3.32,1.00*02
$GPGSV,3,1,11,01,,,24,05,29,022,38,10,,,29,12,,,25*47
$GPGSV,3,2,11,13,33,076,39,15,63,112,38,23,37,249,27,24,,,25*47
$GPGSV,3,3,11,25,47,222,32,29,,,29,50,31,098,36*7D
$GPGLL,0949.20663,N,07627.40814,E,105308.00,A,D*6B
$GPRMC,105309.00,A,0949.21380,N,07627.40681,E,26.159,349.68,260424,,,D*59
$GPVTG,349.68,T,,M,26.159,N,48.446,K,D*3B
$GPGGA,105309.00,0949.21380,N,07627.40681,E,2,04,3.32,-0.7,M,-94.3,M,,0000*5D
$GPGSA,A,2,23,05,13,15,,,,,,,,,3.47,3.32,1.00*02
$GPGSV,3,1,11,01,,,24,05,29,022,35,10,,,33,12,,,24*40
$GPGSV,3,2,11,13,33,076,40,15,63,112,37,23,37,249,27,24,,,22*41
$GPGSV,3,3,11,25,47,222,31,29,,,22,50,31,098,40*74
$GPGLL,0949.21380,N,07627.40681,E,105309.00,A,D*61
$GPRMC,105310.00,A,0949.22100,N,07627.40548,E,26.198,349.98,260424,,,D*5C
$GPVTG,349.98,T,,M,26.198,N,48.520,K,D*38
$GPGGA,105310.00,0949.22100,N,07627.40548,E,2,04,3.32,0.0,M,-94.3,M,,0000*70
$GPGSA,A,2,23,05,13,15,,,,,,,,,3.47,3.32,1.00*02
$GPGSV,3,1,11,01,,,23,05,29,022,35,10,,,29,12,,,23*4B
$GPGSV,3,2,11,13,33,076,37,15,63,112,35,23,37,249,27,24,,,24*45
$GPGSV,3,3,11,25,47,222,30,29,51,354,23,50,31,098,41*43
$GPGLL,0949.22100,N,07627.40548,E,105310.00,A,D*66
$GPRMC,105311.00,A,0949.22820,N,07627.40417,E,26.103,349.86,260424,,,D*50
$GPVTG,349.86,T,,M,26.103,N,48.342,K,D*37
$GPGGA,105311.00,0949.22820,N,07627.40417,E,2,04,3.32,0.0,M,-94.3,M,,0000*71
$GPGSA,A,2,23,05,13,15,,,,,,,,,3.47,3.32,1.00*02
$GPGSV,3,1,11,01,,,22,05,29,022,35,10,,,30,12,,,22*43
$GPGSV,3,2,11,13,33,076,40,15,63,112,38,23,37,249,29,24,,,24*46
$GPGSV,3,3,11,25,47,222,30,29,51,354,25,50,31,098,40*44
$GPGLL,0949.22820,N,07627.40417,E,105311.00,A,D*67
$GPRMC,105312.00,A,0949.23533,N,07627.40278,E,26.037,348.70,260424,,,D*5C
$GPVTG,348.70,T,,M,26.037,N,48.220,K,D*3C
$GPGGA,105312.00,0949.23533,N,07627.40278,E,2,04,3.32,0.6,M,-94.3,M,,0000*75
$GPGSA,A,2,23,05,13,15,,,,,,,,,3.47,3.32,1.00*02
$GPGSV,3,1,11,01,,,23,05,28,022,35,10,,,21,12,,,22*43
$GPGSV,3,2,11,13,33,076,35,15,63,112,37,23,37,249,30,24,,,23*44
$GPGSV,3,3,11,25,47,222,30,29,51,354,26,50,31,098,41*46
$GPGLL,0949.23533,N,07627.40278,E,105312.00,A,D*65
$GPRMC,105313.00,A,0949.24241,N,07627.40150,E,25.790,349.72,260424,,,D*5B
$GPVTG,349.72,T,,M,25.790,N,47.763,K,D*3B
$GPGGA,105313.00,0949.24241,N,07627.40150,E,2,04,3.32,0.5,M,-94.3,M,,0000*7B
$GPGSA,A,2,23,05,13,15,,,,,,,,,3.47,3.32,1.00*02
$GPGSV,3,1,11,01,,,23,05,28,022,32,10,,,33,12,,,22*47
$GPGSV,3,2,11,13,33,076,35,15,63,112,37,23,37,249,30,24,,,23*44
$GPGSV,3,3,11,25,47,222,29,29,51,354,26,50,31,098,41*4E
$GPGLL,0949.24241,N,07627.40150,E,105313.00,A,D*68
$GPRMC,105314.00,A,0949.24940,N,07627.40003,E,25.443,349.74,260424,,,D*5A
$GPVTG,349.74,T,,M,25.443,N,47.120,K,D*31
$GPGGA,105314.00,0949.24940,N,07627.40003,E,2,04,3.32,0.6,M,-94.3,M,,0000*72
$GPGSA,A,2,23,05,13,15,,,,,,,,,3.47,3.32,1.00*02
$GPGSV,3,1,11,01,,,24,05,28,022,35,10,,,33,12,,,20*45
$GPGSV,3,2,11,13,33,076,40,15,63,112,38,23,37,249,30,24,,,25*4F
$GPGSV,3,3,11,25,47,222,29,29,51,354,26,50,31,098,36*4E
$GPGLL,0949.24940,N,07627.40003,E,105314.00,A,D*62
$GPRMC,105315.00,A,0949.25632,N,07627.39864,E,24.919,350.93,260424,,,D*55
$GPVTG,350.93,T,,M,24.919,N,46.151,K,D*34
$GPGGA,105315.00,0949.25632,N,07627.39864,E,2,04,3.32,0.9,M,-94.3,M,,0000*70
$GPGSA,A,2,23,05,13,15,,,,,,,,,3.47,3.32,1.00*02
$GPGSV,3,1,11,01,,,25,05,28,022,35,10,,,32,12,,,21*44
$GPGSV,3,2,11,13,33,076,40,15,63,112,38,23,37,249,30,24,,,25*4F
$GPGSV,3,3,11,25,47,222,29,29,51,354,27,50,31,098,41*4F
$GPGLL,0949.25632,N,07627.39864,E,105315.00,A,D*6F
$GPRMC,105316.00,A,0949.26317,N,07627.39744,E,24.978,350.80,260424,,,D*5F
$GPVTG,350.80,T,,M,24.978,N,46.259,K,D*3A
$GPGGA,105316.00,0949.26317,N,07627.39744,E,2,04,3.33,1.2,M,-94.3,M,,0000*74
$GPGSA,A,2,23,05,13,15,,,,,,,,,3.47,3.33,1.00*03
$GPGSV,3,1,11,01,,,24,05,28,022,28,10,,,31,12,,,22*49
$GPGSV,3,2,11,13,33,076,39,15,63,112,40,23,37,249,30,24,,,26*4D
$GPGSV,3,3,11,25,47,222,29,29,51,354,26,50,31,098,41*4E
$GPGLL,0949.26317,N,07627.39744,E,105316.00,A,D*60
$GPRMC,105317.00,A,0949.26989,N,07627.39643,E,24.815,350.16,260424,,,D*50
$GPVTG,350.16,T,,M,24.815,N,45.957,K,D*39
$GPGGA,105317.00,0949.26989,N,07627.39643,E,2,04,3.33,0.4,M,-94.3,M,,0000*79
$GPGSA,A,2,23,05,13,15,,,,,,,,,3.47,3.33,1.00*03
$GPGSV,3,1,11,01,,,23,05,28,022,36,10,,,35,12,,,22*45
$GPGSV,3,2,11,13,33,076,40,15,63,112,38,23,37,249,30,24,,,25*4F
$GPGSV,3,3,11,25,47,222,30,29,51,354,26,50,31,098,41*46
$GPGLL,0949.26989,N,07627.39643,E,105317.00,A,D*6A
$GPRMC,105318.00,A,0949.27655,N,07627.39526,E,24.497,348.55,260424,,,D*58
$GPVTG,348.55,T,,M,24.497,N,45.368,K,D*37
$GPGGA,105318.00,0949.27655,N,07627.39526,E,2,04,3.33,0.4,M,-94.3,M,,0000*79
$GPGSA,A,2,23,05,13,15,,,,,,,,,3.47,3.33,1.00*03
$GPGSV,3,1,11,01,,,21,05,28,022,38,10,,,35,12,,,22*49
$GPGSV,3,2,11,13,33,076,39,15,63,112,40,23,37,249,30,24,,,24*4F
$GPGSV,3,3,11,25,47,222,30,29,51,354,25,50,31,098,39*4A
$GPGLL,0949.27655,N,07627.39526,E,105318.00,A,D*6A
$GPRMC,105319.00,A,0949.28325,N,07627.39428,E,24.171,351.80,260424,,,D*56
$GPVTG,351.80,T,,M,24.171,N,44.765,K,D*32
$GPGGA,105319.00,0949.28325,N,07627.39428,E,2,04,3.33,0.7,M,-94.3,M,,0000*79
$GPGSA,A,2,23,05,13,15,,,,,,,,,3.47,3.33,1.00*03
$GPGSV,3,1,11,01,,,21,05,28,022,38,10,,,34,12,,,22*48
$GPGSV,3,2,11,13,33,076,40,15,63,112,40,23,37,249,28,24,,,22*4E
$GPGSV,3,3,11,25,47,222,31,29,51,354,25,50,31,098,41*44
$GPGLL,0949.28325,N,07627.39428,E,105319.00,A,D*69
$GPRMC,105320.00,A,0949.28990,N,07627.39332,E,24.117,352.49,260424,,,D*52
$GPVTG,352.49,T,,M,24.117,N,44.664,K,D*34
$GPGGA,105320.00,0949.28990,N,07627.39332,E,2,04,3.33,1.2,M,-94.3,M,,0000*7F
$GPGSA,A,2,23,05,13,15,,,,,,,,,3.47,3.33,1.00*03
$GPGSV,3,1,12,01,,,22,05,28,022,38,10,,,34,12,,,24*4E
$GPGSV,3,2,12,13,33,076,39,15,63,112,41,23,37,249,27,24,,,23*4C
$GPGSV,3,3,12,25,47,222,30,29,51,354,26,30,,,25,50,31,098,41*41
$GPGLL,0949.28990,N,07627.39332,E,105320.00,A,D*6B
$GPRMC,105321.00,A,0949.29660,N,07627.39245,E,24.015,349.92,260424,,,D*5C
$GPVTG,349.92,T,,M,24.015,N,44.476,K,D*3A
$GPGGA,105321.00,0949.29660,N,07627.39245,E,2,04,3.33,0.8,M,-94.3,M,,0000*75
$GPGSA,A,2,23,05,13,15,,,,,,,,,3.47,3.33,1.00*03
$GPGSV,3,1,12,01,,,21,05,28,022,40,10,,,34,12,,,24*42
$GPGSV,3,2,12,13,33,076,41,15,63,112,40,23,37,249,26,24,,,25*45
$GPGSV,3,3,12,25,47,222,29,29,51,354,25,30,,,23,50,31,098,41*4C
$GPGLL,0949.29660,N,07627.39245,E,105321.00,A,D*6A
$GPRMC,105322.00,A,0949.31049,N,07627.39851,E,23.616,350.89,260424,,,D*54
$GPVTG,350.89,T,,M,23.616,N,43.737,K,D*3B
$GPGGA,105322.00,0949.31049,N,07627.39851,E,2,05,2.22,24.9,M,-94.3,M,,0000*4A
$GPGSA,A,3,10,23,05,13,15,,,,,,,,3.74,2.22,3.02*02
$GPGSV,3,1,12,01,,,21,05,28,022,36,10,09,231,34,12,,,25*7B
$GPGSV,3,2,12,13,33,076,39,15,63,111,39,23,37,249,25,24,,,22*43
$GPGSV,3,3,12,25,47,222,33,29,51,354,25,30,,,22,50,31,098,41*46
$GPGLL,0949.31049,N,07627.39851,E,105322.00,A,D*62
$GPRMC,105323.00,A,0949.31570,N,07627.39773,E,23.410,349.68,260424,,,D*56
$GPVTG,349.68,T,,M,23.410,N,43.356,K,D*3B
$GPGGA,105323.00,0949.31570,N,07627.39773,E,2,05,2.22,25.2,M,-94.3,M,,0000*41
$GPGSA,A,3,10,23,05,13,15,,,,,,,,3.74,2.22,3.02*02
$GPGSV,3,1,12,01,,,22,05,28,022,38,10,09,231,34,12,,,25*76
$GPGSV,3,2,12,13,33,076,40,15,63,111,40,23,37,249,25,24,,,22*43
$GPGSV,3,3,12,25,47,222,28,29,51,354,25,30,,,20,50,31,098,41*4E
$GPGLL,0949.31570,N,07627.39773,E,105323.00,A,D*63
$GPRMC,105324.00,A,0949.32250,N,07627.39644,E,23.036,350.10,260424,,,D*55
$GPVTG,350.10,T,,M,23.036,N,42.663,K,D*3E
$GPGGA,105324.00,0949.32250,N,07627.39644,E,2,05,2.22,25.4,M,-94.3,M,,0000*43
$GPGSA,A,3,10,23,05,13,15,,,,,,,,3.74,2.22,3.02*02
$GPGSV,3,1,11,01,,,22,05,28,022,39,10,09,231,31,12,,,25*71
$GPGSV,3,2,11,13,33,076,41,15,63,111,39,23,37,249,31,24,,,22*4A
$GPGSV,3,3,11,25,47,222,27,29,51,354,26,50,31,098,37*41
$GPGLL,0949.32250,N,07627.39644,E,105324.00,A,D*67
$GPRMC,105325.00,A,0949.32866,N,07627.39507,E,22.889,350.09,260424,,,D*5A
$GPVTG,350.09,T,,M,22.889,N,42.390,K,D*32
$GPGGA,105325.00,0949.32866,N,07627.39507,E,2,05,2.22,25.2,M,-94.3,M,,0000*4F
$GPGSA,A,3,10,23,05,13,15,,,,,,,,3.74,2.22,3.02*02
$GPGSV,3,1,11,01,,,21,05,28,022,39,10,09,231,35,12,,,25*76
$GPGSV,3,2,11,13,33,076,40,15,63,111,40,23,37,249,26,24,,,22*43
$GPGSV,3,3,11,25,47,222,26,29,51,354,27,50,31,098,42*43
$GPGLL,0949.32866,N,07627.39507,E,105325.00,A,D*6D
$GPRMC,105326.00,A,0949.33475,N,07627.39382,E,22.543,349.25,260424,,,D*50
$GPVTG,349.25,T,,M,22.543,N,41.750,K,D*34
$GPGGA,105326.00,0949.33475,N,07627.39382,E,2,05,2.22,24.9,M,-94.3,M,,0000*42
$GPGSA,A,3,10,23,05,13,15,,,,,,,,3.75,2.22,3.02*03
$GPGSV,3,1,11,01,,,20,05,28,022,37,10,09,231,35,12,,,25*79
$GPGSV,3,2,11,13,33,076,40,15,63,111,40,23,37,249,30,24,,,21*47
$GPGSV,3,3,11,25,47,222,25,29,51,354,28,50,31,098,40*4D
$GPGLL,0949.33475,N,07627.39382,E,105326.00,A,D*6A
$GPRMC,105327.00,A,0949.34094,N,07627.39286,E,21.907,352.11,260424,,,D*5A
$GPVTG,352.11,T,,M,21.907,N,40.572,K,D*35
$GPGGA,105327.00,0949.34094,N,07627.39286,E,2,05,2.22,25.5,M,-94.3,M,,0000*47
$GPGSA,A,3,10,23,05,13,15,,,,,,,,3.75,2.22,3.02*03
$GPGSV,3,1,11,01,,,19,05,28,022,37,10,09,231,29,12,,,25*7E
$GPGSV,3,2,11,13,33,076,40,15,63,111,41,23,37,249,29,24,,,21*4E
$GPGSV,3,3,11,25,47,222,26,29,51,354,27,50,31,098,40*41
$GPGLL,0949.34094,N,07627.39286,E,105327.00,A,D*62
$GPRMC,105328.00,A,0949.34697,N,07627.39182,E,21.549,352.17,260424,,,D*57
$GPVTG,352.17,T,,M,21.549,N,39.909,K,D*3B
$GPGGA,105328.00,0949.34697,N,07627.39182,E,2,05,2.22,26.1,M,-94.3,M,,0000*4D
$GPGSA,A,3,10,23,05,13,15,,,,,,,,3.75,2.22,3.02*03
$GPGSV,3,1,10,05,28,022,34,10,09,231,29,12,,,24,13,33,076,40*43
$GPGSV,3,2,10,15,63,111,39,23,37,249,27,24,,,24,25,47,222,27*4F
$GPGSV,3,3,10,29,51,354,26,50,31,098,41*72
$GPGLL,0949.34697,N,07627.39182,E,105328.00,A,D*6F
$GPRMC,105329.00,A,0949.35270,N,07627.39087,E,20.756,350.60,260424,,,D*51
$GPVTG,350.60,T,,M,20.756,N,38.440,K,D*35
$GPGGA,105329.00,0949.35270,N,07627.39087,E,2,05,2.22,26.4,M,-94.3,M,,0000*41
$GPGSA,A,3,10,23,05,13,15,,,,,,,,3.75,2.22,3.02*03
$GPGSV,3,1,10,05,28,022,33,10,09,231,31,12,,,24,13,33,076,40*4D
$GPGSV,3,2,10,15,63,111,40,23,37,249,27,24,,,24,25,47,222,27*41
$GPGSV,3,3,10,29,51,354,26,50,31,098,41*72
$GPGLL,0949.35270,N,07627.39087,E,105329.00,A,D*66
$GPRMC,105330.00,A,0949.35827,N,07627.38990,E,20.142,350.23,260424,,,D*5B
$GPVTG,350.23,T,,M,20.142,N,37.302,K,D*3F
$GPGGA,105330.00,0949.35827,N,07627.38990,E,2,05,2.22,26.7,M,-94.3,M,,0000*4C
$GPGSA,A,3,10,23,05,13,15,,,,,,,,3.75,2.22,3.02*03
$GPGSV,3,1,10,05,28,022,32,10,09,231,32,12,,,23,13,33,076,39*46
$GPGSV,3,2,10,15,63,111,40,23,37,250,28,24,,,23,25,47,222,25*43
$GPGSV,3,3,10,29,51,354,25,50,31,098,41*71
$GPGLL,0949.35827,N,07627.38990,E,105330.00,A,D*68
$GPRMC,105331.00,A,0949.36365,N,07627.38875,E,19.576,348.03,260424,,,D*5C
$GPVTG,348.03,T,,M,19.576,N,36.254,K,D*3E
$GPGGA,105331.00,0949.36365,N,07627.38875,E,2,05,2.22,26.8,M,-94.3,M,,0000*46
$GPGSA,A,3,10,23,05,13,15,,,,,,,,3.75,2.22,3.02*03
$GPGSV,3,1,10,05,28,022,35,10,09,231,26,12,,,26,13,33,076,41*4E
$GPGSV,3,2,10,15,63,111,39,23,37,250,26,24,,,22,25,47,222,25*42
$GPGSV,3,3,10,29,51,354,24,50,31,098,40*71
$GPGLL,0949.36365,N,07627.38875,E,105331.00,A,D*6D
$GPRMC,105332.00,A,0949.36886,N,07627.38760,E,19.141,346.90,260424,,,D*56
$GPVTG,346.90,T,,M,19.141,N,35.450,K,D*3B
$GPGGA,105332.00,0949.36886,N,07627.38760,E,2,05,2.22,26.7,M,-94.3,M,,0000*47
$GPGSA,A,3,10,23,05,13,15,,,,,,,,3.75,2.22,3.02*03
$GPGSV,3,1,10,05,28,022,31,10,09,231,24,12,,,25,13,33,076,40*4A
$GPGSV,3,2,10,15,63,111,39,23,37,250,27,24,,,24,25,46,222,25*44
$GPGSV,3,3,10,29,51,354,25,50,31,098,41*71
$GPGLL,0949.36886,N,07627.38760,E,105332.00,A,D*63
$GPRMC,105333.00,A,0949.37392,N,07627.38663,E,18.184,349.93,260424,,,D*5E
$GPVTG,349.93,T,,M,18.184,N,33.677,K,D*3E
$GPGGA,105333.00,0949.37392,N,07627.38663,E,2,05,2.22,27.1,M,-94.3,M,,0000*4C
$GPGSA,A,3,10,23,05,13,15,,,,,,,,3.75,2.22,3.02*03
$GPGSV,3,1,10,05,28,022,31,10,09,231,31,12,,,25,13,33,076,40*4E
$GPGSV,3,2,10,15,63,111,39,23,37,250,28,24,,,22,25,46,222,26*4E
$GPGSV,3,3,10,29,51,354,26,50,31,098,41*72
$GPGLL,0949.37392,N,07627.38663,E,105333.00,A,D*6F
$GPRMC,105334.00,A,0949.37882,N,07627.38566,E,17.732,349.84,260424,,,D*57
$GPVTG,349.84,T,,M,17.732,N,32.839,K,D*39
$GPGGA,105334.00,0949.37882,N,07627.38566,E,2,05,2.22,27.5,M,-94.3,M,,0000*43
$GPGSA,A,3,10,23,05,13,15,,,,,,,,3.75,2.22,3.02*03
$GPGSV,3,1,10,05,28,022,31,10,09,231,31,12,,,25,13,33,076,41*4F
$GPGSV,3,2,10,15,63,111,40,23,37,250,27,24,,,22,25,46,222,25*4C
$GPGSV,3,3,10,29,51,354,25,50,31,098,41*71
$GPGLL,0949.37882,N,07627.38566,E,105334.00,A,D*64
$GPRMC,105335.00,A,0949.38354,N,07627.38442,E,17.732,344.43,260424,,,D*58
$GPVTG,344.43,T,,M,17.732,N,32.839,K,D*3F
$GPGGA,105335.00,0949.38354,N,07627.38442,E,2,05,2.22,27.3,M,-94.3,M,,0000*4C
$GPGSA,A,3,10,23,05,13,15,,,,,,,,3.75,2.22,3.02*03
$GPGSV,3,1,10,05,28,022,32,10,09,231,25,12,,,31,13,33,076,41*4C
$GPGSV,3,2,10,15,63,111,39,23,37,250,29,24,,,23,25,46,222,30*49
$GPGSV,3,3,10,29,51,354,26,50,31,098,41*72
$GPGLL,0949.38354,N,07627.38442,E,105335.00,A,D*6D
$GPRMC,105336.00,A,0949.38812,N,07627.38335,E,16.887,347.05,260424,,,D*54
$GPVTG,347.05,T,,M,16.887,N,31.274,K,D*3E
$GPGGA,105336.00,0949.38812,N,07627.38335,E,2,05,2.22,27.0,M,-94.3,M,,0000*42
$GPGSA,A,3,10,23,05,13,15,,,,,,,,3.75,2.22,3.02*03
$GPGSV,3,1,10,05,28,022,34,10,09,231,24,12,,,25,13,33,076,41*4E
$GPGSV,3,2,10,15,63,111,39,23,37,250,28,24,,,22,25,46,222,28*40
$GPGSV,3,3,10,29,51,354,25,50,31,098,41*71
$GPGLL,0949.38812,N,07627.38335,E,105336.00,A,D*60
$GPRMC,105337.00,A,0949.39283,N,07627.38245,E,16.899,350.71,260424,,,D*5A
$GPVTG,350.71,T,,M,16.899,N,31.296,K,D*38
$GPGGA,105337.00,0949.39283,N,07627.38245,E,2,05,2.22,27.2,M,-94.3,M,,0000*44
$GPGSA,A,3,10,23,05,13,15,,,,,,,,3.75,2.22,3.02*03
$GPGSV,3,1,10,05,28,022,30,10,09,231,23,12,,,26,13,33,076,37*4F
$GPGSV,3,2,10,15,63,111,41,23,37,250,28,24,,,25,25,46,222,33*42
$GPGSV,3,3,10,29,51,354,26,50,31,098,43*70
$GPGLL,0949.39283,N,07627.38245,E,105337.00,A,D*64
$GPRMC,105338.00,A,0949.39754,N,07627.38159,E,16.275,350.86,260424,,,D*54
$GPVTG,350.86,T,,M,16.275,N,30.141,K,D*30
$GPGGA,105338.00,0949.39754,N,07627.38159,E,2,05,2.22,27.9,M,-94.3,M,,0000*41
$GPGSA,A,3,10,23,05,13,15,,,,,,,,3.75,2.22,3.02*03
$GPGSV,3,1,10,05,28,022,34,10,09,231,21,12,,,25,13,33,076,40*4A
$GPGSV,3,2,10,15,63,111,39,23,37,250,29,24,,,31,25,46,222,27*4C
$GPGSV,3,3,10,29,51,354,27,50,31,098,39*7C
$GPGLL,0949.39754,N,07627.38159,E,105338.00,A,D*6A
$GPRMC,105339.00,A,0949.40228,N,07627.38083,E,16.472,350.27,260424,,,D*59
$GPVTG,350.27,T,,M,16.472,N,30.507,K,D*3C
$GPGGA,105339.00,0949.40228,N,07627.38083,E,2,05,2.22,28.7,M,-94.3,M,,0000*47
$GPGSA,A,3,10,23,05,13,15,,,,,,,,3.75,2.22,3.02*03
$GPGSV,3,1,10,05,28,022,37,10,09,231,22,12,,,26,13,33,076,41*48
$GPGSV,3,2,10,15,63,111,39,23,37,250,32,24,,,23,25,46,222,27*45
$GPGSV,3,3,10,29,51,354,26,50,31,098,41*72
$GPGLL,0949.40228,N,07627.38083,E,105339.00,A,D*6D
$GPRMC,105340.00,A,0949.40677,N,07627.37995,E,16.158,348.23,260424,,,D*58
$GPVTG,348.23,T,,M,16.158,N,29.924,K,D*39
$GPGGA,105340.00,0949.40677,N,07627.37995,E,2,05,2.22,28.8,M,-94.3,M,,0000*49
$GPGSA,A,3,10,23,05,13,15,,,,,,,,3.75,2.22,3.02*03
$GPGSV,3,1,10,05,28,022,37,10,09,231,22,12,,,26,13,33,076,38*46
$GPGSV,3,2,10,15,63,111,40,23,37,250,32,24,,,22,25,46,222,26*4B
$GPGSV,3,3,10,29,51,354,25,50,31,098,40*70
$GPGLL,0949.40677,N,07627.37995,E,105340.00,A,D*6C
$GPRMC,105341.00,A,0949.41124,N,07627.37919,E,16.160,350.16,260424,,,D*59
$GPVTG,350.16,T,,M,16.160,N,29.928,K,D*31
$GPGGA,105341.00,0949.41124,N,07627.37919,E,2,05,2.22,29.0,M,-94.3,M,,0000*45
$GPGSA,A,3,10,23,05,13,15,,,,,,,,3.75,2.22,3.02*03
$GPGSV,3,1,10,05,28,022,31,10,09,231,31,12,,,27,13,33,076,40*4C
$GPGSV,3,2,10,15,63,111,37,23,37,250,34,24,,,29,25,46,222,31*40
$GPGSV,3,3,10,29,51,354,25,50,31,098,40*70
$GPGLL,0949.41124,N,07627.37919,E,105341.00,A,D*69
$GPRMC,105342.00,A,0949.41549,N,07627.37828,E,15.884,348.80,260424,,,D*50
$GPVTG,348.80,T,,M,15.884,N,29.418,K,D*39
$GPGGA,105342.00,0949.41549,N,07627.37828,E,2,05,2.22,28.9,M,-94.3,M,,0000*42
$GPGSA,A,3,10,23,05,13,15,,,,,,,,3.75,2.22,3.02*03
$GPGSV,3,1,10,05,28,022,34,10,09,231,25,12,,,27,13,33,076,40*4C
$GPGSV,3,2,10,15,63,111,39,23,37,250,30,24,,,28,25,46,222,24*4F
$GPGSV,3,3,10,29,51,354,25,50,31,098,39*7E
$GPGLL,0949.41549,N,07627.37828,E,105342.00,A,D*66
$GPRMC,105343.00,A,0949.41992,N,07627.37754,E,16.195,349.25,260424,,,D*5B
$GPVTG,349.25,T,,M,16.195,N,29.993,K,D*33
$GPGGA,105343.00,0949.41992,N,07627.37754,E,2,05,2.23,28.9,M,-94.3,M,,0000*4C
$GPGSA,A,3,10,23,05,13,15,,,,,,,,3.75,2.23,3.02*02
$GPGSV,3,1,10,05,28,022,33,10,09,231,27,12,,,24,13,33,076,40*4A
$GPGSV,3,2,10,15,63,111,37,23,37,250,26,24,,,28,25,46,222,25*47
$GPGSV,3,3,10,29,51,354,25,50,31,098,40*70
$GPGLL,0949.41992,N,07627.37754,E,105343.00,A,D*69
$GPRMC,105344.00,A,0949.42437,N,07627.37689,E,15.994,349.69,260424,,,D*5E
$GPVTG,349.69,T,,M,15.994,N,29.620,K,D*36
$GPGGA,105344.00,0949.42437,N,07627.37689,E,2,05,2.23,29.2,M,-94.3,M,,0000*41
$GPGSA,A,3,10,23,05,13,15,,,,,,,,3.75,2.23,3.02*02
$GPGSV,3,1,10,05,28,022,36,10,09,231,33,12,,,25,13,33,076,40*4B
$GPGSV,3,2,10,15,63,111,39,23,37,250,31,24,,,28,25,46,222,22*48
$GPGSV,3,3,10,29,51,354,26,50,31,098,40*73
$GPGLL,0949.42437,N,07627.37689,E,105344.00,A,D*6E
$GPRMC,105345.00,A,0949.42865,N,07627.37633,E,15.497,350.88,260424,,,D*5C
$GPVTG,350.88,T,,M,15.497,N,28.700,K,D*3D
$GPGGA,105345.00,0949.42865,N,07627.37633,E,2,05,2.23,29.3,M,-94.3,M,,0000*4B
$GPGSA,A,3,10,23,05,13,15,,,,,,,,3.75,2.23,3.02*02
$GPGSV,3,1,10,05,28,022,37,10,09,231,33,12,,,30,13,33,076,40*4E
$GPGSV,3,2,10,15,63,111,38,23,37,250,34,24,,,26,25,46,222,25*45
$GPGSV,3,3,10,29,51,354,26,50,31,098,38*7C
$GPGLL,0949.42865,N,07627.37633,E,105345.00,A,D*65
$GPRMC,105346.00,A,0949.43286,N,07627.37566,E,15.572,350.94,260424,,,D*5D
$GPVTG,350.94,T,,M,15.572,N,28.840,K,D*31
$GPGGA,105346.00,0949.43286,N,07627.37566,E,2,05,2.23,29.4,M,-94.3,M,,0000*4A
$GPGSA,A,3,10,23,05,13,15,,,,,,,,3.75,2.23,3.02*02
$GPGSV,3,1,10,05,28,022,37,10,09,231,33,12,,,29,13,33,076,34*45
$GPGSV,3,2,10,15,63,111,40,23,37,250,30,24,,,25,25,46,222,26*4E
$GPGSV,3,3,10,29,51,354,26,50,31,098,41*72
$GPGLL,0949.43286,N,07627.37566,E,105346.00,A,D*63
$GPRMC,105347.00,A,0949.43697,N,07627.37505,E,15.115,350.93,260424,,,D*5F
$GPVTG,350.93,T,,M,15.115,N,27.993,K,D*33
$GPGGA,105347.00,0949.43697,N,07627.37505,E,2,05,2.23,29.3,M,-94.3,M,,0000*4D
$GPGSA,A,3,10,23,05,13,15,,,,,,,,3.75,2.23,3.02*02
$GPGSV,3,1,10,05,28,022,35,10,09,231,32,12,,,29,13,33,076,36*44
$GPGSV,3,2,10,15,63,111,38,23,37,250,31,24,,,23,25,46,222,24*44
$GPGSV,3,3,10,29,51,354,26,50,31,098,40*73
$GPGLL,0949.43697,N,07627.37505,E,105347.00,A,D*63
$GPRMC,105348.00,A,0949.44127,N,07627.37431,E,15.701,349.69,260424,,,D*53
$GPVTG,349.69,T,,M,15.701,N,29.079,K,D*3E
$GPGGA,105348.00,0949.44127,N,07627.37431,E,2,05,2.23,29.5,M,-94.3,M,,0000*49
$GPGSA,A,3,10,23,05,13,15,,,,,,,,3.75,2.23,3.02*02
$GPGSV,3,1,10,05,28,022,29,10,09,231,32,12,,,28,13,33,076,41*48
$GPGSV,3,2,10,15,63,111,39,23,37,250,30,24,,,22,25,46,222,23*42
$GPGSV,3,3,10,29,51,354,25,50,31,098,39*7E
$GPGLL,0949.44127,N,07627.37431,E,105348.00,A,D*61
$GPRMC,105349.00,A,0949.44545,N,07627.37371,E,15.297,350.59,260424,,,D*50
$GPVTG,350.59,T,,M,15.297,N,28.330,K,D*30
$GPGGA,105349.00,0949.44545,N,07627.37371,E,2,05,2.23,29.6,M,-94.3,M,,0000*48
$GPGSA,A,3,10,23,05,13,15,,,,,,,,3.75,2.23,3.02*02
$GPGSV,3,1,10,05,28,022,29,10,09,231,32,12,,,26,13,33,076,41*46
$GPGSV,3,2,10,15,63,111,35,23,37,250,30,24,,,22,25,46,222,25*48
$GPGSV,3,3,10,29,51,354,25,50,31,098,39*7E
$GPGLL,0949.44545,N,07627.37371,E,105349.00,A,D*63
$GPRMC,105350.00,A,0949.44965,N,07627.37307,E,15.207,350.65,260424,,,D*51
$GPVTG,350.65,T,,M,15.207,N,28.164,K,D*35
$GPGGA,105350.00,0949.44965,N,07627.37307,E,2,05,2.23,29.6,M,-94.3,M,,0000*4F
$GPGSA,A,3,10,23,05,13,15,,,,,,,,3.76,2.23,3.02*01
$GPGSV,3,1,10,05,28,022,29,10,09,231,35,12,,,26,13,33,076,43*43
$GPGSV,3,2,10,15,63,111,38,23,37,250,29,24,,,24,25,46,222,30*4F
$GPGSV,3,3,10,29,51,354,25,50,31,098,41*71
$GPGLL,0949.44965,N,07627.37307,E,105350.00,A,D*64
$GPRMC,105351.00,A,0949.45397,N,07627.37219,E,15.513,349.45,260424,,,D*50
$GPVTG,349.45,T,,M,15.513,N,28.730,K,D*3A
$GPGGA,105351.00,0949.45397,N,07627.37219,E,2,05,2.23,30.0,M,-94.3,M,,0000*48
$GPGSA,A,3,10,23,05,13,15,,,,,,,,3.76,2.23,3.02*01
$GPGSV,3,1,10,05,28,022,36,10,09,231,32,12,,,26,13,33,076,40*49
$GPGSV,3,2,10,15,63,111,37,23,37,250,29,24,,,27,25,46,222,30*43
$GPGSV,3,3,10,29,51,354,25,50,31,098,42*72
$GPGLL,0949.45397,N,07627.37219,E,105351.00,A,D*6D
$GPRMC,105352.00,A,0949.45820,N,07627.37142,E,15.667,348.35,260424,,,D*5F
$GPVTG,348.35,T,,M,15.667,N,29.016,K,D*3E
$GPGGA,105352.00,0949.45820,N,07627.37142,E,2,05,2.23,30.1,M,-94.3,M,,0000*40
$GPGSA,A,3,10,23,05,13,15,,,,,,,,3.76,2.23,3.02*01
$GPGSV,3,1,10,05,28,022,33,10,09,231,32,12,,,25,13,33,076,40*4F
$GPGSV,3,2,10,15,63,111,39,23,37,250,30,24,,,28,25,46,222,30*4A
$GPGSV,3,3,10,29,51,354,27,50,31,098,40*72
$GPGLL,0949.45820,N,07627.37142,E,105352.00,A,D*64
$GPRMC,105353.00,A,0949.46206,N,07627.37071,E,14.423,348.03,260424,,,D*54
$GPVTG,348.03,T,,M,14.423,N,26.711,K,D*37
$GPGGA,105353.00,0949.46206,N,07627.37071,E,2,06,2.23,30.1,M,-94.3,M,,0000*4E
$GPGSA,A,3,10,23,05,29,13,15,,,,,,,3.76,2.23,3.02*0A
$GPGSV,3,1,10,05,28,022,36,10,09,231,26,12,,,26,13,33,076,41*4D
$GPGSV,3,2,10,15,63,111,39,23,37,250,30,24,,,25,25,46,222,31*46
$GPGSV,3,3,10,29,51,354,26,50,31,098,42*71
$GPGLL,0949.46206,N,07627.37071,E,105353.00,A,D*69
$GPRMC,105354.00,A,0949.46594,N,07627.37013,E,14.353,352.67,260424,,,D*52
$GPVTG,352.67,T,,M,14.353,N,26.581,K,D*35
$GPGGA,105354.00,0949.46594,N,07627.37013,E,2,06,2.23,30.3,M,-94.3,M,,0000*43
$GPGSA,A,3,10,23,05,29,13,15,,,,,,,3.76,2.23,3.02*0A
$GPGSV,3,1,10,05,28,022,36,10,09,231,26,12,,,26,13,33,076,41*4D
$GPGSV,3,2,10,15,63,111,39,23,37,250,30,24,,,25,25,46,222,30*47
$GPGSV,3,3,10,29,51,354,24,50,31,098,40*71
$GPGLL,0949.46594,N,07627.37013,E,105354.00,A,D*66
$GPRMC,105355.00,A,0949.46989,N,07627.36955,E,14.286,355.15,260424,,,D*52
$GPVTG,355.15,T,,M,14.286,N,26.458,K,D*3B
$GPGGA,105355.00,0949.46989,N,07627.36955,E,2,06,2.23,31.2,M,-94.3,M,,0000*48
$GPGSA,A,3,10,23,05,29,13,15,,,,,,,3.76,2.23,3.02*0A
$GPGSV,3,1,10,05,28,022,33,10,09,231,25,12,,,26,13,33,076,41*4B
$GPGSV,3,2,10,15,63,111,38,23,37,250,31,24,,,26,25,46,222,30*44
$GPGSV,3,3,10,29,51,354,24,50,31,098,41*70
$GPGLL,0949.46989,N,07627.36955,E,105355.00,A,D*6D
$GPRMC,105356.00,A,0949.47390,N,07627.36905,E,14.643,354.68,260424,,,D*51
$GPVTG,354.68,T,,M,14.643,N,27.118,K,D*3D
$GPGGA,105356.00,0949.47390,N,07627.36905,E,2,06,2.23,31.1,M,-94.3,M,,0000*4E
$GPGSA,A,3,10,23,05,29,13,15,,,,,,,3.76,2.23,3.02*0A
$GPGSV,3,1,10,05,28,022,34,10,09,231,25,12,,,30,13,33,076,41*4B
$GPGSV,3,2,10,15,63,111,39,23,37,250,29,24,,,26,25,46,222,31*4D
$GPGSV,3,3,10,29,51,354,30,50,31,098,40*74
$GPGLL,0949.47390,N,07627.36905,E,105356.00,A,D*68
$GPRMC,105357.00,A,0949.47786,N,07627.36837,E,14.600,352.68,260424,,,D*52
$GPVTG,352.68,T,,M,14.600,N,27.039,K,D*3E
$GPGGA,105357.00,0949.47786,N,07627.36837,E,2,06,2.23,31.3,M,-94.3,M,,0000*4E
$GPGSA,A,3,10,23,05,29,13,15,,,,,,,3.76,2.23,3.02*0A
$GPGSV,3,1,10,05,28,022,34,10,09,231,26,12,,,24,13,33,076,39*42
$GPGSV,3,2,10,15,63,111,38,23,37,250,33,24,,,24,25,46,222,25*40
$GPGSV,3,3,10,29,51,354,25,50,31,098,41*71
$GPGLL,0949.47786,N,07627.36837,E,105357.00,A,D*6A
$GPRMC,105358.00,A,0949.48186,N,07627.36779,E,14.596,353.98,260424,,,D*53
$GPVTG,353.98,T,,M,14.596,N,27.031,K,D*34
$GPGGA,105358.00,0949.48186,N,07627.36779,E,2,06,2.23,31.4,M,-94.3,M,,0000*4A
$GPGSA,A,3,10,23,05,29,13,15,,,,,,,3.76,2.23,3.02*0A
$GPGSV,3,1,10,05,28,022,37,10,09,231,26,12,,,26,13,33,076,39*43
$GPGSV,3,2,10,15,63,111,39,23,37,250,34,24,,,22,25,46,222,30*44
$GPGSV,3,3,10,29,51,354,26,50,31,098,40*73
$GPGLL,0949.48186,N,07627.36779,E,105358.00,A,D*69
$GPRMC,105359.00,A,0949.48594,N,07627.36715,E,15.142,352.57,260424,,,D*51
$GPVTG,352.57,T,,M,15.142,N,28.043,K,D*30
$GPGGA,105359.00,0949.48594,N,07627.36715,E,2,06,2.23,31.7,M,-94.3,M,,0000*45
$GPGSA,A,3,10,23,05,29,13,15,,,,,,,3.76,2.23,3.02*0A
$GPGSV,3,1,10,05,28,022,38,10,09,231,26,12,,,31,13,33,076,41*45
$GPGSV,3,2,10,15,63,111,41,23,37,250,29,24,,,22,25,46,222,22*44
$GPGSV,3,3,10,29,51,354,27,50,31,098,42*70
$GPGLL,0949.48594,N,07627.36715,E,105359.00,A,D*65
$GPRMC,105400.00,A,0949.48993,N,07627.36645,E,14.831,350.23,260424,,,D*58
$GPVTG,350.23,T,,M,14.831,N,27.468,K,D*3F
$GPGGA,105400.00,0949.48993,N,07627.36645,E,2,06,2.23,31.2,M,-94.3,M,,0000*44
$GPGSA,A,3,10,23,05,29,13,15,,,,,,,3.76,2.23,3.02*0A
$GPGSV,3,1,10,05,28,022,34,10,09,231,25,12,,,26,13,33,076,40*4D
$GPGSV,3,2,10,15,63,111,41,23,37,250,36,24,,,31,25,46,222,34*4F
$GPGSV,3,3,10,29,51,354,27,50,31,098,41*73
$GPGLL,0949.48993,N,07627.36645,E,105400.00,A,D*61
$GPRMC,105401.00,A,0949.49405,N,07627.36571,E,15.079,348.91,260424,,,D*5B
$GPVTG,348.91,T,,M,15.079,N,27.926,K,D*3D
$GPGGA,105401.00,0949.49405,N,07627.36571,E,2,06,2.23,31.3,M,-94.3,M,,0000*43
$GPGSA,A,3,10,23,05,29,13,15,,,,,,,3.76,2.23,3.03*0B
$GPGSV,3,1,10,05,28,022,35,10,09,231,25,12,,,27,13,33,076,41*4C
$GPGSV,3,2,10,15,63,111,39,23,37,250,33,24,,,31,25,46,222,30*41
$GPGSV,3,3,10,29,51,354,31,50,31,098,41*74
$GPGLL,0949.49405,N,07627.36571,E,105401.00,A,D*67
$GPRMC,105402.00,A,0949.49799,N,07627.36504,E,14.240,348.08,260424,,,D*55
$GPVTG,348.08,T,,M,14.240,N,26.372,K,D*3E
$GPGGA,105402.00,0949.49799,N,07627.36504,E,2,06,2.23,31.9,M,-94.3,M,,0000*4E
$GPGSA,A,3,10,23,05,29,13,15,,,,,,,3.76,2.23,3.03*0B
$GPGSV,3,1,10,05,28,022,32,10,09,231,27,12,,,33,13,33,076,44*49
$GPGSV,3,2,10,15,63,111,35,23,37,250,29,24,,,30,25,46,222,36*41
$GPGSV,3,3,10,29,51,354,25,50,31,098,30*77
$GPGLL,0949.49799,N,07627.36504,E,105402.00,A,D*60
$GPRMC,105403.00,A,0949.50180,N,07627.36453,E,13.801,350.15,260424,,,D*5C
$GPVTG,350.15,T,,M,13.801,N,25.560,K,D*35
$GPGGA,105403.00,0949.50180,N,07627.36453,E,2,06,2.23,32.1,M,-94.3,M,,0000*41
$GPGSA,A,3,10,23,05,29,13,15,,,,,,,3.76,2.23,3.03*0B
$GPGSV,3,1,10,05,28,022,38,10,09,231,32,12,,,29,13,33,076,42*4A
$GPGSV,3,2,10,15,63,111,39,23,37,250,31,24,,,22,25,46,222,27*47
$GPGSV,3,3,10,29,51,354,31,50,31,098,42*77
$GPGLL,0949.50180,N,07627.36453,E,105403.00,A,D*64
$GPRMC,105404.00,A,0949.50556,N,07627.36395,E,13.773,350.82,260424,,,D*5D
$GPVTG,350.82,T,,M,13.773,N,25.507,K,D*30
$GPGGA,105404.00,0949.50556,N,07627.36395,E,2,06,2.23,32.2,M,-94.3,M,,0000*47
$GPGSA,A,3,10,23,05,29,13,15,,,,,,,3.76,2.23,3.03*0B
$GPGSV,3,1,11,05,28,022,39,10,09,231,28,12,,,32,13,33,076,34*4A
$GPGSV,3,2,11,15,63,111,39,16,,,25,23,37,250,34,24,,,22*71
$GPGSV,3,3,11,25,46,222,32,29,51,354,30,50,31,098,44*47
$GPGLL,0949.50556,N,07627.36395,E,105404.00,A,D*61
$GPRMC,105405.00,A,0949.50932,N,07627.36321,E,13.731,350.79,260424,,,D*5F
$GPVTG,350.79,T,,M,13.731,N,25.430,K,D*37
$GPGGA,105405.00,0949.50932,N,07627.36321,E,2,06,2.23,32.3,M,-94.3,M,,0000*46
$GPGSA,A,3,10,23,05,29,13,15,,,,,,,3.76,2.23,3.03*0B
$GPGSV,3,1,11,05,28,022,33,10,09,231,28,12,,,26,13,33,076,41*47
$GPGSV,3,2,11,15,63,111,33,16,,,23,23,37,250,34,24,,,29*76
$GPGSV,3,3,11,25,46,222,30,29,51,354,25,50,31,098,35*47
$GPGLL,0949.50932,N,07627.36321,E,105405.00,A,D*61
$GPRMC,105406.00,A,0949.51306,N,07627.36259,E,13.676,349.36,260424,,,D*5F
$GPVTG,349.36,T,,M,13.676,N,25.327,K,D*37
$GPGGA,105406.00,0949.51306,N,07627.36259,E,2,06,2.24,32.3,M,-94.3,M,,0000*40
$GPGSA,A,3,10,23,05,29,13,15,,,,,,,3.76,2.24,3.03*0C
$GPGSV,3,1,10,05,28,022,34,10,09,231,28,12,,,26,13,33,076,36*41
$GPGSV,3,2,10,15,63,111,36,23,37,250,34,24,,,27,25,46,222,30*4E
$GPGSV,3,3,10,29,51,354,26,50,31,098,42*71
$GPGLL,0949.51306,N,07627.36259,E,105406.00,A,D*60
$GPRMC,105407.00,A,0949.51689,N,07627.36182,E,13.570,348.93,260424,,,D*52
$GPVTG,348.93,T,,M,13.570,N,25.131,K,D*39
$GPGGA,105407.00,0949.51689,N,07627.36182,E,2,06,2.24,32.5,M,-94.3,M,,0000*40
$GPGSA,A,3,10,23,05,29,13,15,,,,,,,3.76,2.24,3.03*0C
$GPGSV,3,1,10,05,28,022,37,10,09,231,29,12,,,27,13,33,076,39*4D
$GPGSV,3,2,10,15,63,111,36,23,37,250,30,24,,,25,25,46,222,34*4C
$GPGSV,3,3,10,29,51,354,33,50,31,098,36*76
$GPGLL,0949.51689,N,07627.36182,E,105407.00,A,D*66
$GPRMC,105408.00,A,0949.52062,N,07627.36104,E,13.381,348.45,260424,,,D*50
$GPVTG,348.45,T,,M,13.381,N,24.781,K,D*36
$GPGGA,105408.00,0949.52062,N,07627.36104,E,2,06,2.24,31.8,M,-94.3,M,,0000*4F
$GPGSA,A,3,10,23,05,29,13,15,,,,,,,3.76,2.24,3.03*0C
$GPGSV,3,1,10,05,28,022,36,10,09,231,28,12,,,27,13,33,076,41*42
$GPGSV,3,2,10,15,63,111,39,23,37,250,34,24,,,25,25,46,222,23*41
$GPGSV,3,3,10,29,51,354,29,50,31,098,41*7D
$GPGLL,0949.52062,N,07627.36104,E,105408.00,A,D*67
$GPRMC,105409.00,A,0949.52418,N,07627.36047,E,12.769,349.68,260424,,,D*53
$GPVTG,349.68,T,,M,12.769,N,23.648,K,D*38
$GPGGA,105409.00,0949.52418,N,07627.36047,E,2,05,2.24,31.7,M,-94.3,M,,0000*4D
$GPGSA,A,3,10,23,05,13,15,,,,,,,,3.76,2.24,3.03*07
$GPGSV,3,1,10,05,28,022,25,10,09,231,25,12,,,27,13,33,076,38*43
$GPGSV,3,2,10,15,63,111,35,23,37,250,30,24,,,23,25,46,222,37*4A
$GPGSV,3,3,10,29,51,354,29,50,31,098,42*7E
$GPGLL,0949.52418,N,07627.36047,E,105409.00,A,D*69
$GPRMC,105410.00,A,0949.52778,N,07627.35983,E,13.141,347.66,260424,,,D*51
$GPVTG,347.66,T,,M,13.141,N,24.337,K,D*3F
$GPGGA,105410.00,0949.52778,N,07627.35983,E,2,06,2.24,31.4,M,-94.3,M,,0000*42
$GPGSA,A,3,10,23,05,29,13,15,,,,,,,3.76,2.24,3.03*0C
$GPGSV,3,1,10,05,28,022,30,10,09,231,25,12,,,26,13,33,076,40*49
$GPGSV,3,2,10,15,63,111,38,23,37,250,30,24,,,23,25,46,222,34*44
$GPGSV,3,3,10,29,51,354,27,50,31,098,41*73
$GPGLL,0949.52778,N,07627.35983,E,105410.00,A,D*66
$GPRMC,105411.00,A,0949.53124,N,07627.35910,E,13.066,346.81,260424,,,D*58
$GPVTG,346.81,T,,M,13.066,N,24.199,K,D*35
$GPGGA,105411.00,0949.53124,N,07627.35910,E,2,06,2.24,31.0,M,-94.3,M,,0000*43
$GPGSA,A,3,10,23,05,29,13,15,,,,,,,3.76,2.24,3.03*0C
$GPGSV,3,1,10,05,28,022,37,10,09,231,22,12,,,28,13,33,076,43*44
$GPGSV,3,2,10,15,63,111,38,23,37,250,30,24,,,23,25,46,222,30*40
$GPGSV,3,3,10,29,51,354,27,50,31,098,38*7D
$GPGLL,0949.53124,N,07627.35910,E,105411.00,A,D*63
$GPRMC,105412.00,A,0949.53464,N,07627.35821,E,12.599,347.04,260424,,,D*51
$GPVTG,347.04,T,,M,12.599,N,23.333,K,D*38
$GPGGA,105412.00,0949.53464,N,07627.35821,E,2,06,2.24,30.1,M,-94.3,M,,0000*42
$GPGSA,A,3,10,23,05,29,13,15,,,,,,,3.76,2.24,3.03*0C
$GPGSV,3,1,10,05,28,022,35,10,09,231,21,12,,,27,13,33,076,37*49
$GPGSV,3,2,10,15,63,111,36,23,37,250,34,24,,,22,25,46,222,30*4B
$GPGSV,3,3,10,29,51,354,25,50,31,098,40*70
$GPGLL,0949.53464,N,07627.35821,E,105412.00,A,D*62
$GPRMC,105413.00,A,0949.53813,N,07627.35735,E,12.853,347.88,260424,,,D*59
$GPVTG,347.88,T,,M,12.853,N,23.804,K,D*38
$GPGGA,105413.00,0949.53813,N,07627.35735,E,2,06,2.24,29.8,M,-94.3,M,,0000*44
$GPGSA,A,3,10,23,05,29,13,15,,,,,,,3.77,2.24,3.03*0D
$GPGSV,3,1,10,05,28,022,34,10,09,231,22,12,,,26,13,33,076,40*4A
$GPGSV,3,2,10,15,63,111,35,23,37,250,29,24,,,30,25,46,222,30*47
$GPGSV,3,3,10,29,51,354,25,50,31,098,35*72
$GPGLL,0949.53813,N,07627.35735,E,105413.00,A,D*65
$GPRMC,105414.00,A,0949.54173,N,07627.35669,E,12.611,347.74,260424,,,D*55
$GPVTG,347.74,T,,M,12.611,N,23.355,K,D*3C
$GPGGA,105414.00,0949.54173,N,07627.35669,E,2,06,2.24,29.6,M,-94.3,M,,0000*4D
$GPGSA,A,3,10,23,05,29,13,15,,,,,,,3.77,2.24,3.03*0D
$GPGSV,3,1,10,05,28,022,37,10,09,231,22,12,,,25,13,33,076,42*48
$GPGSV,3,2,10,15,63,111,40,23,37,250,32,24,,,29,25,46,222,30*47
$GPGSV,3,3,10,29,51,354,25,50,31,098,41*71
$GPGLL,0949.54173,N,07627.35669,E,105414.00,A,D*62
$GPRMC,105415.00,A,0949.54532,N,07627.35599,E,12.562,346.22,260424,,,D*5C
$GPVTG,346.22,T,,M,12.562,N,23.264,K,D*3A
$GPGGA,105415.00,0949.54532,N,07627.35599,E,2,06,2.24,30.1,M,-94.3,M,,0000*4E
$GPGSA,A,3,10,23,05,29,13,15,,,,,,,3.77,2.24,3.03*0D
$GPGSV,3,1,10,05,28,022,32,10,09,231,24,12,,,24,13,33,076,41*49
$GPGSV,3,2,10,15,63,111,39,23,37,250,28,24,,,28,25,46,222,29*4B
$GPGSV,3,3,10,29,51,354,24,50,31,098,42*73
$GPGLL,0949.54532,N,07627.35599,E,105415.00,A,D*6E
$GPRMC,105416.00,A,0949.54868,N,07627.35529,E,12.059,347.71,260424,,,D*5C
$GPVTG,347.71,T,,M,12.059,N,22.334,K,D*35
$GPGGA,105416.00,0949.54868,N,07627.35529,E,2,06,2.24,30.3,M,-94.3,M,,0000*46
$GPGSA,A,3,10,23,05,29,13,15,,,,,,,3.77,2.24,3.03*0D
$GPGSV,3,1,10,05,28,022,30,10,09,231,23,12,,,25,13,33,076,36*4D
$GPGSV,3,2,10,15,63,111,39,23,37,250,29,24,,,27,25,46,222,19*46
$GPGSV,3,3,10,29,51,354,24,50,31,098,41*70
$GPGLL,0949.54868,N,07627.35529,E,105416.00,A,D*64
$GPRMC,105417.00,A,0949.55237,N,07627.35460,E,12.549,350.15,260424,,,D*50
$GPVTG,350.15,T,,M,12.549,N,23.241,K,D*37
$GPGGA,105417.00,0949.55237,N,07627.35460,E,2,06,2.24,30.5,M,-94.3,M,,0000*4C
$GPGSA,A,3,10,23,05,29,13,15,,,,,,,3.77,2.24,3.03*0D
$GPGSV,3,1,10,05,28,022,37,10,09,231,23,12,,,25,13,33,076,41*4A
$GPGSV,3,2,10,15,63,111,36,23,37,250,33,24,,,26,25,46,222,27*4E
$GPGSV,3,3,10,29,51,354,25,50,31,098,42*72
$GPGLL,0949.55237,N,07627.35460,E,105417.00,A,D*68
$GPRMC,105418.00,A,0949.55595,N,07627.35410,E,12.214,350.05,260424,,,D*59
$GPVTG,350.05,T,,M,12.214,N,22.621,K,D*3A
$GPGGA,105418.00,0949.55595,N,07627.35410,E,2,06,2.24,30.7,M,-94.3,M,,0000*49
$GPGSA,A,3,10,23,05,29,13,15,,,,,,,3.77,2.24,3.03*0D
$GPGSV,3,1,10,05,28,022,37,10,09,231,21,12,,,24,13,33,076,39*46
$GPGSV,3,2,10,15,63,111,37,23,37,250,32,24,,,25,25,46,222,22*48
$GPGSV,3,3,10,29,51,354,26,50,31,098,41*72
$GPGLL,0949.55595,N,07627.35410,E,105418.00,A,D*6F
$GPRMC,105419.00,A,0949.55925,N,07627.35332,E,11.964,347.37,260424,,,D*50
$GPVTG,347.37,T,,M,11.964,N,22.157,K,D*34
$GPGGA,105419.00,0949.55925,N,07627.35332,E,2,06,2.24,30.8,M,-94.3,M,,0000*47
$GPGSA,A,3,10,23,05,29,13,15,,,,,,,3.77,2.24,3.03*0D
$GPGSV,3,1,10,05,28,022,35,10,09,231,20,12,,,30,13,33,076,30*49
$GPGSV,3,2,10,15,63,111,36,23,37,250,31,24,,,23,25,46,222,28*46
$GPGSV,3,3,10,29,51,354,26,50,31,098,42*71
$GPGLL,0949.55925,N,07627.35332,E,105419.00,A,D*6E
$GPRMC,105420.00,A,0949.56258,N,07627.35247,E,12.292,346.61,260424,,,D*58
$GPVTG,346.61,T,,M,12.292,N,22.764,K,D*31
$GPGGA,105420.00,0949.56258,N,07627.35247,E,2,06,2.24,31.0,M,-94.3,M,,0000*45
$GPGSA,A,3,10,23,05,29,13,15,,,,,,,3.77,2.24,3.03*0D
$GPGSV,3,1,10,05,28,022,37,10,09,231,20,12,,,21,13,33,076,31*4A
$GPGSV,3,2,10,15,63,111,37,23,37,250,31,24,,,25,25,46,222,26*4F
$GPGSV,3,3,10,29,51,354,26,50,31,098,38*7C
$GPGLL,0949.56258,N,07627.35247,E,105420.00,A,D*65
$GPRMC,105421.00,A,0949.56592,N,07627.35177,E,12.028,348.59,260424,,,D*5E
$GPVTG,348.59,T,,M,12.028,N,22.276,K,D*31
$GPGGA,105421.00,0949.56592,N,07627.35177,E,2,06,2.24,31.0,M,-94.3,M,,0000*45
$GPGSA,A,3,10,23,05,29,13,15,,,,,,,3.77,2.24,3.03*0D
$GPGSV,3,1,10,05,28,022,36,10,09,231,23,12,,,23,13,33,076,39*42
$GPGSV,3,2,10,15,63,111,39,23,37,250,31,24,,,25,25,46,222,25*42
$GPGSV,3,3,10,29,51,354,31,50,31,098,28*7B
$GPGLL,0949.56592,N,07627.35177,E,105421.00,A,D*65
$GPRMC,105422.00,A,0949.56916,N,07627.35142,E,11.547,349.94,260424,,,D*54
$GPVTG,349.94,T,,M,11.547,N,21.385,K,D*30
$GPGGA,105422.00,0949.56916,N,07627.35142,E,2,06,2.24,30.9,M,-94.3,M,,0000*48
$GPGSA,A,3,10,23,05,29,13,15,,,,,,,3.77,2.24,3.03*0D
$GPGSV,3,1,10,05,28,022,37,10,09,231,24,12,,,25,13,33,076,41*4D
$GPGSV,3,2,10,15,63,111,39,23,37,250,31,24,,,26,25,46,222,25*41
$GPGSV,3,3,10,29,51,354,30,50,31,098,40*74
$GPGLL,0949.56916,N,07627.35142,E,105422.00,A,D*60
$GPRMC,105423.00,A,0949.57243,N,07627.35090,E,11.867,347.24,260424,,,D*5B
$GPVTG,347.24,T,,M,11.867,N,21.978,K,D*32
$GPGGA,105423.00,0949.57243,N,07627.35090,E,2,06,2.24,31.0,M,-94.3,M,,0000*45
$GPGSA,A,3,10,23,05,29,13,15,,,,,,,3.77,2.24,3.03*0D
$GPGSV,3,1,10,05,28,023,38,10,09,231,22,12,,,31,13,33,076,35*43
$GPGSV,3,2,10,15,63,111,38,23,37,250,36,24,,,27,25,46,222,32*40
$GPGSV,3,3,10,29,51,354,29,50,31,098,41*7D
$GPGLL,0949.57243,N,07627.35090,E,105423.00,A,D*65
$GPRMC,105424.00,A,0949.57568,N,07627.35045,E,11.579,347.73,260424,,,D*5A
$GPVTG,347.73,T,,M,11.579,N,21.444,K,D*30
$GPGGA,105424.00,0949.57568,N,07627.35045,E,2,06,2.24,30.8,M,-94.3,M,,0000*4D
$GPGSA,A,3,10,23,05,29,13,15,,,,,,,3.77,2.24,3.03*0D
$GPGSV,3,1,10,05,28,023,36,10,09,231,20,12,,,25,13,33,076,39*46
$GPGSV,3,2,10,15,63,111,39,23,37,250,33,24,,,28,25,46,222,26*4E
$GPGSV,3,3,10,29,51,354,28,50,31,098,39*73
$GPGLL,0949.57568,N,07627.35045,E,105424.00,A,D*64
$GPRMC,105425.00,A,0949.57925,N,07627.35021,E,12.175,352.26,260424,,,D*53
$GPVTG,352.26,T,,M,12.175,N,22.547,K,D*3E
$GPGGA,105425.00,0949.57925,N,07627.35021,E,2,06,2.24,31.7,M,-94.3,M,,0000*45
$GPGSA,A,3,10,23,05,29,13,15,,,,,,,3.77,2.24,3.03*0D
$GPGSV,3,1,10,05,28,023,37,10,09,231,20,12,,,25,13,33,076,39*47
$GPGSV,3,2,10,15,63,111,39,23,37,250,32,24,,,29,25,46,222,24*4C
$GPGSV,3,3,10,29,51,354,28,50,31,098,40*7D
$GPGLL,0949.57925,N,07627.35021,E,105425.00,A,D*62
$GPRMC,105426.00,A,0949.58266,N,07627.35004,E,11.867,353.74,260424,,,D*5B
$GPVTG,353.74,T,,M,11.867,N,21.978,K,D*32
$GPGGA,105426.00,0949.58266,N,07627.35004,E,2,06,2.24,32.1,M,-94.3,M,,0000*47
$GPGSA,A,3,10,23,05,29,13,15,,,,,,,3.77,2.24,3.03*0D
$GPGSV,3,1,10,05,28,023,37,10,09,231,21,12,,,25,13,33,076,39*46
$GPGSV,3,2,10,15,63,111,39,23,37,250,32,24,,,28,25,46,222,23*4A
$GPGSV,3,3,10,29,51,354,28,50,31,098,40*7D
$GPGLL,0949.58266,N,07627.35004,E,105426.00,A,D*65
$GPRMC,105427.00,A,0949.58553,N,07627.34959,E,11.105,352.44,260424,,,D*54
$GPVTG,352.44,T,,M,11.105,N,20.566,K,D*3F
$GPGGA,105427.00,0949.58553,N,07627.34959,E,2,06,3.35,30.4,M,-94.3,M,,0000*41
$GPGSA,A,2,10,23,05,29,13,15,,,,,,,3.50,3.35,1.00*09
$GPGSV,3,1,10,05,28,023,39,10,09,231,22,12,,,25,13,33,076,38*4A
$GPGSV,3,2,10,15,63,111,39,23,37,250,36,24,,,28,25,46,222,25*48
$GPGSV,3,3,10,29,51,354,28,50,31,098,41*7C
$GPGLL,0949.58553,N,07627.34959,E,105427.00,A,D*65
$GPRMC,105428.00,A,0949.58871,N,07627.35022,E,10.738,349.77,260424,,,D*51
$GPVTG,349.77,T,,M,10.738,N,19.887,K,D*34
$GPGGA,105428.00,0949.58871,N,07627.35022,E,2,06,2.25,28.5,M,-94.3,M,,0000*4F
$GPGSA,A,3,10,23,05,29,13,15,,,,,,,3.77,2.25,3.03*0C
$GPGSV,3,1,10,05,28,023,39,10,09,231,29,12,,,26,13,33,076,40*4D
$GPGSV,3,2,10,15,63,111,39,23,37,250,34,24,,,27,25,46,222,25*45
$GPGSV,3,3,10,29,51,354,28,50,31,098,40*7D
$GPGLL,0949.58871,N,07627.35022,E,105428.00,A,D*63
$GPRMC,105429.00,A,0949.59206,N,07627.34898,E,11.006,350.27,260424,,,D*55
$GPVTG,350.27,T,,M,11.006,N,20.384,K,D*30
$GPGGA,105429.00,0949.59206,N,07627.34898,E,2,06,2.25,29.6,M,-94.3,M,,0000*4F
$GPGSA,A,3,10,23,05,29,13,15,,,,,,,3.77,2.25,3.03*0C
$GPGSV,3,1,10,05,28,023,38,10,09,231,29,12,,,24,13,33,076,41*4F
$GPGSV,3,2,10,15,63,111,41,23,37,250,34,24,,,25,25,46,222,24*49
$GPGSV,3,3,10,29,51,354,32,50,31,098,41*77
$GPGLL,0949.59206,N,07627.34898,E,105429.00,A,D*61
$GPRMC,105430.00,A,0949.59505,N,07627.34891,E,10.770,351.26,260424,,,D*57
$GPVTG,351.26,T,,M,10.770,N,19.946,K,D*39
$GPGGA,105430.00,0949.59505,N,07627.34891,E,2,06,2.25,29.4,M,-94.3,M,,0000*48
$GPGSA,A,3,10,23,05,29,13,15,,,,,,,3.77,2.25,3.03*0C
$GPGSV,3,1,10,05,28,023,35,10,09,231,27,12,,,23,13,33,076,41*4B
$GPGSV,3,2,10,15,63,111,37,23,37,250,33,24,,,25,25,46,222,24*4F
$GPGSV,3,3,10,29,51,354,29,50,31,098,40*7C
$GPGLL,0949.59505,N,07627.34891,E,105430.00,A,D*64
$GPRMC,105431.00,A,0949.59801,N,07627.34807,E,10.667,348.66,260424,,,D*5B
$GPVTG,348.66,T,,M,10.667,N,19.756,K,D*3D
$GPGGA,105431.00,0949.59801,N,07627.34807,E,2,06,2.25,29.7,M,-94.3,M,,0000*4C
$GPGSA,A,3,10,23,05,29,13,15,,,,,,,3.77,2.25,3.03*0C
$GPGSV,3,1,10,05,28,023,35,10,09,231,24,12,,,23,13,33,075,41*4B
$GPGSV,3,2,10,15,63,111,39,23,37,250,33,24,,,25,25,46,222,23*46
$GPGSV,3,3,10,29,51,354,27,50,31,098,43*71
$GPGLL,0949.59801,N,07627.34807,E,105431.00,A,D*63
$GPRMC,105432.00,A,0949.60102,N,07627.34780,E,11.018,347.46,260424,,,D*5A
$GPVTG,347.46,T,,M,11.018,N,20.405,K,D*30
$GPGGA,105432.00,0949.60102,N,07627.34780,E,2,06,2.25,29.9,M,-94.3,M,,0000*41
$GPGSA,A,3,10,23,05,29,13,15,,,,,,,3.77,2.25,3.03*0C
$GPGSV,3,1,10,05,28,023,31,10,09,231,24,12,,,30,13,33,075,40*4C
$GPGSV,3,2,10,15,63,111,44,23,37,250,31,24,,,25,25,46,222,29*44
$GPGSV,3,3,10,29,51,354,27,50,31,098,41*73
$GPGLL,0949.60102,N,07627.34780,E,105432.00,A,D*60
$GPRMC,105433.00,A,0949.60242,N,07627.34869,E,5.947,352.18,260424,,,D*6D
$GPVTG,352.18,T,,M,5.947,N,11.013,K,D*08
$GPGGA,105433.00,0949.60242,N,07627.34869,E,2,06,2.25,29.9,M,-94.3,M,,0000*4F
$GPGSA,A,3,10,23,05,29,13,15,,,,,,,3.77,2.25,3.03*0C
$GPGSV,3,1,10,05,28,023,31,10,09,231,25,12,,,30,13,33,075,41*4C
$GPGSV,3,2,10,15,63,110,40,23,37,250,30,24,,,31,25,46,222,24*48
$GPGSV,3,3,10,29,51,354,33,50,31,098,38*78
$GPGLL,0949.60242,N,07627.34869,E,105433.00,A,D*6E
$GPRMC,105434.00,A,0949.60504,N,07627.34888,E,8.410,0.20,260424,,,D*6D
$GPVTG,0.20,T,,M,8.410,N,15.575,K,D*04
$GPGGA,105434.00,0949.60504,N,07627.34888,E,2,06,2.25,29.9,M,-94.3,M,,0000*42
$GPGSA,A,3,10,23,05,29,13,15,,,,,,,3.77,2.25,3.03*0C
$GPGSV,3,1,10,05,28,023,34,10,09,231,24,12,,,29,13,33,075,40*41
$GPGSV,3,2,10,15,63,110,33,23,37,250,31,24,,,35,25,46,222,22*4F
$GPGSV,3,3,10,29,51,354,34,50,31,098,41*71
$GPGLL,0949.60504,N,07627.34888,E,105434.00,A,D*63
$GPRMC,105435.00,A,0949.60789,N,07627.34857,E,9.069,358.34,260424,,,D*69
$GPVTG,358.34,T,,M,9.069,N,16.796,K,D*08
$GPGGA,105435.00,0949.60789,N,07627.34857,E,2,06,2.25,30.0,M,-94.3,M,,0000*47
$GPGSA,A,3,10,23,05,29,13,15,,,,,,,3.77,2.25,3.03*0C
$GPGSV,3,1,10,05,28,023,34,10,09,231,22,12,,,29,13,33,075,40*47
$GPGSV,3,2,10,15,63,110,33,23,37,250,31,24,,,37,25,46,222,22*4D
$GPGSV,3,3,10,29,51,354,33,50,31,098,41*76
$GPGLL,0949.60789,N,07627.34857,E,105435.00,A,D*67
$GPRMC,105436.00,A,0949.61140,N,07627.34797,E,10.154,351.35,260424,,,D*54
$GPVTG,351.35,T,,M,10.154,N,18.806,K,D*3F
$GPGGA,105436.00,0949.61140,N,07627.34797,E,2,06,2.25,31.0,M,-94.3,M,,0000*44
$GPGSA,A,3,10,23,05,29,13,15,,,,,,,3.77,2.25,3.03*0C
$GPGSV,3,1,10,05,28,023,36,10,09,231,29,12,,,22,13,33,075,42*47
$GPGSV,3,2,10,15,63,110,34,23,37,250,30,24,,,34,25,46,222,22*48
$GPGSV,3,3,10,29,51,354,30,50,31,098,42*76
$GPGLL,0949.61140,N,07627.34797,E,105436.00,A,D*65
$GPRMC,105437.00,A,0949.61513,N,07627.34676,E,10.400,351.35,260424,,,D*5D
$GPVTG,351.35,T,,M,10.400,N,19.260,K,D*30
$GPGGA,105437.00,0949.61513,N,07627.34676,E,2,06,2.25,32.7,M,-94.3,M,,0000*4D
$GPGSA,A,3,10,23,05,29,13,15,,,,,,,3.78,2.25,3.03*03
$GPGSV,3,1,10,05,28,023,39,10,09,231,21,12,,,25,13,33,075,40*45
$GPGSV,3,2,10,15,63,110,40,23,37,250,31,24,,,34,25,46,222,24*4C
$GPGSV,3,3,10,29,51,354,29,50,31,098,40*7C
$GPGLL,0949.61513,N,07627.34676,E,105437.00,A,D*68
$GPRMC,105438.00,A,0949.61837,N,07627.34613,E,10.402,351.92,260424,,,D*55
$GPVTG,351.92,T,,M,10.402,N,19.264,K,D*3B
$GPGGA,105438.00,0949.61837,N,07627.34613,E,2,06,2.25,33.4,M,-94.3,M,,0000*48
$GPGSA,A,3,10,23,05,29,13,15,,,,,,,3.78,2.25,3.03*03
$GPGSV,3,1,10,05,28,023,37,10,09,231,22,12,,,25,13,33,075,40*48
$GPGSV,3,2,10,15,63,110,40,23,37,250,31,24,,,33,25,46,222,23*4C
$GPGSV,3,3,10,29,51,354,28,50,31,098,41*7C
$GPGLL,0949.61837,N,07627.34613,E,105438.00,A,D*6F
$GPRMC,105439.00,A,0949.62101,N,07627.34542,E,10.147,348.58,260424,,,D*56
$GPVTG,348.58,T,,M,10.147,N,18.792,K,D*3C
$GPGGA,105439.00,0949.62101,N,07627.34542,E,2,06,2.25,32.3,M,-94.3,M,,0000*47
$GPGSA,A,3,10,23,05,29,13,15,,,,,,,3.78,2.25,3.03*03
$GPGSV,3,1,10,05,28,023,37,10,09,231,22,12,,,26,13,33,075,41*4A
$GPGSV,3,2,10,15,63,110,42,23,37,250,35,24,,,33,25,46,222,23*4A
$GPGSV,3,3,10,29,51,354,29,50,31,098,39*72
$GPGLL,0949.62101,N,07627.34542,E,105439.00,A,D*66
$GPRMC,105440.00,A,0949.62360,N,07627.34494,E,10.029,348.60,260424,,,D*55
$GPVTG,348.60,T,,M,10.029,N,18.574,K,D*34
$GPGGA,105440.00,0949.62360,N,07627.34494,E,2,06,3.36,31.3,M,-94.3,M,,0000*46
$GPGSA,A,2,10,23,05,29,13,15,,,,,,,3.50,3.36,1.00*0A
$GPGSV,3,1,11,05,28,023,39,10,09,231,22,11,,,25,12,,,26*77
$GPGSV,3,2,11,13,33,075,41,15,63,110,42,23,37,250,34,24,,,33*49
$GPGSV,3,3,11,25,46,222,23,29,51,354,28,50,31,098,41*4B
$GPGLL,0949.62360,N,07627.34494,E,105440.00,A,D*67
$GPRMC,105441.00,A,0949.62633,N,07627.34434,E,9.786,350.01,260424,,,D*69
$GPVTG,350.01,T,,M,9.786,N,18.123,K,D*06
$GPGGA,105441.00,0949.62633,N,07627.34434,E,2,06,3.36,29.8,M,-94.3,M,,0000*4C
$GPGSA,A,2,10,23,05,29,13,15,,,,,,,3.50,3.36,1.00*0A
$GPGSV,3,1,10,05,28,023,39,10,09,231,24,12,,,25,13,33,075,41*41
$GPGSV,3,2,10,15,63,110,42,23,37,250,31,24,,,34,25,46,222,29*43
$GPGSV,3,3,10,29,51,354,26,50,31,098,40*73
$GPGLL,0949.62633,N,07627.34434,E,105441.00,A,D*6F
$GPRMC,105442.00,A,0949.62898,N,07627.34374,E,9.699,350.63,260424,,,D*6D
$GPVTG,350.63,T,,M,9.699,N,17.963,K,D*0E
$GPGGA,105442.00,0949.62898,N,07627.34374,E,2,06,3.36,29.2,M,-94.3,M,,0000*49
$GPGSA,A,2,10,23,05,29,13,15,,,,,,,3.50,3.36,1.00*0A
$GPGSV,3,1,10,05,28,023,40,10,09,231,25,12,,,25,13,33,075,38*40
$GPGSV,3,2,10,15,63,110,42,23,37,250,34,24,,,33,25,46,222,28*40
$GPGSV,3,3,10,29,51,354,26,50,31,098,41*72
$GPGLL,0949.62898,N,07627.34374,E,105442.00,A,D*60
$GPRMC,105443.00,A,0949.63145,N,07627.34332,E,9.530,351.36,260424,,,D*67
$GPVTG,351.36,T,,M,9.530,N,17.650,K,D*00
$GPGGA,105443.00,0949.63145,N,07627.34332,E,2,06,3.36,28.2,M,-94.3,M,,0000*43
$GPGSA,A,2,10,23,05,29,13,15,,,,,,,3.50,3.36,1.00*0A
$GPGSV,3,1,10,05,28,023,38,10,09,231,26,12,,,27,13,33,075,40*41
$GPGSV,3,2,10,15,63,110,41,23,37,250,34,24,,,34,25,46,221,27*48
$GPGSV,3,3,10,29,51,354,31,50,31,098,37*75
$GPGLL,0949.63145,N,07627.34332,E,105443.00,A,D*6B
$GPRMC,105444.00,A,0949.63393,N,07627.34279,E,9.455,348.66,260424,,,D*68
$GPVTG,348.66,T,,M,9.455,N,17.511,K,D*09
$GPGGA,105444.00,0949.63393,N,07627.34279,E,2,06,3.36,27.0,M,-94.3,M,,0000*4E
$GPGSA,A,2,10,23,05,29,13,15,,,,,,,3.51,3.36,1.00*0B
$GPGSV,3,1,10,05,28,023,40,10,09,231,25,12,,,26,13,33,075,41*4D
$GPGSV,3,2,10,15,63,110,41,23,37,250,34,24,,,34,25,46,221,28*47
$GPGSV,3,3,10,29,51,354,30,50,31,098,42*76
$GPGLL,0949.63393,N,07627.34279,E,105444.00,A,D*6B
$GPRMC,105445.00,A,0949.63645,N,07627.34325,E,9.429,349.62,260424,,,D*61
$GPVTG,349.62,T,,M,9.429,N,17.463,K,D*03
$GPGGA,105445.00,0949.63645,N,07627.34325,E,2,06,2.25,26.2,M,-94.3,M,,0000*49
$GPGSA,A,3,10,23,05,29,13,15,,,,,,,3.78,2.25,3.03*03
$GPGSV,3,1,11,05,28,023,39,10,09,231,25,12,,,26,13,33,075,41*42
$GPGSV,3,2,11,15,63,110,39,20,,,26,23,37,250,33,24,,,34*76
$GPGSV,3,3,11,25,46,221,27,29,51,354,29,50,31,098,41*4D
$GPGLL,0949.63645,N,07627.34325,E,105445.00,A,D*6C
$GPRMC,105446.00,A,0949.63913,N,07627.34287,E,9.359,350.90,260424,,,D*62
$GPVTG,350.90,T,,M,9.359,N,17.332,K,D*05
$GPGGA,105446.00,0949.63913,N,07627.34287,E,2,06,2.25,26.5,M,-94.3,M,,0000*48
$GPGSA,A,3,10,23,05,29,13,15,,,,,,,3.78,2.25,3.03*03
$GPGSV,3,1,12,05,28,023,37,10,09,231,26,12,,,24,13,33,075,41*4E
$GPGSV,3,2,12,15,63,110,38,20,,,24,22,,,25,23,37,250,33*70
$GPGSV,3,3,12,24,,,34,25,46,221,28,29,51,354,29,50,31,098,41*40
$GPGLL,0949.63913,N,07627.34287,E,105446.00,A,D*6A
$GPRMC,105447.00,A,0949.64187,N,07627.34247,E,9.482,350.09,260424,,,D*6C
$GPVTG,350.09,T,,M,9.482,N,17.561,K,D*04
$GPGGA,105447.00,0949.64187,N,07627.34247,E,2,06,2.25,27.3,M,-94.3,M,,0000*40
$GPGSA,A,3,10,23,05,29,13,15,,,,,,,3.78,2.25,3.03*03
$GPGSV,3,1,12,05,28,023,38,10,09,231,25,12,,,26,13,33,075,42*43
$GPGSV,3,2,12,15,63,110,41,20,,,22,22,,,22,23,37,250,33*7F
$GPGSV,3,3,12,24,,,34,25,46,221,27,29,52,354,29,50,31,098,40*4D
$GPGLL,0949.64187,N,07627.34247,E,105447.00,A,D*65
$GPRMC,105448.00,A,0949.64442,N,07627.34197,E,9.134,348.90,260424,,,D*60
$GPVTG,348.90,T,,M,9.134,N,16.915,K,D*0B
$GPGGA,105448.00,0949.64442,N,07627.34197,E,2,06,2.25,27.4,M,-94.3,M,,0000*4A
$GPGSA,A,3,10,23,05,29,13,15,,,,,,,3.78,2.25,3.03*03
$GPGSV,3,1,11,05,28,023,40,10,09,231,24,12,,,26,13,33,075,43*4F
$GPGSV,3,2,11,15,63,110,41,22,,,26,23,37,250,30,24,,,35*79
$GPGSV,3,3,11,25,46,221,28,29,52,354,30,50,31,098,41*49
$GPGLL,0949.64442,N,07627.34197,E,105448.00,A,D*68
$GPRMC,105449.00,A,0949.64745,N,07627.34189,E,9.415,351.65,260424,,,D*6E
$GPVTG,351.65,T,,M,9.415,N,17.436,K,D*02
$GPGGA,105449.00,0949.64745,N,07627.34189,E,2,06,2.25,29.4,M,-94.3,M,,0000*4E
$GPGSA,A,3,10,23,05,29,13,15,,,,,,,3.78,2.25,3.03*03
$GPGSV,3,1,11,05,28,023,33,10,09,231,25,12,,,26,13,33,075,43*4A
$GPGSV,3,2,11,15,63,110,40,22,,,23,23,37,250,30,24,,,32*7A
$GPGSV,3,3,11,25,46,221,31,29,52,354,30,50,31,098,41*41
$GPGLL,0949.64745,N,07627.34189,E,105449.00,A,D*62
$GPRMC,105450.00,A,0949.64979,N,07627.34133,E,8.822,350.61,260424,,,D*6A
$GPVTG,350.61,T,,M,8.822,N,16.339,K,D*07
$GPGGA,105450.00,0949.64979,N,07627.34133,E,2,06,2.26,29.1,M,-94.3,M,,0000*40
$GPGSA,A,3,10,23,05,29,13,15,,,,,,,3.78,2.26,3.03*00
$GPGSV,3,1,10,05,28,023,35,10,09,231,25,12,,,25,13,33,075,44*49
$GPGSV,3,2,10,15,63,110,39,23,37,250,33,24,,,33,25,46,221,31*40
$GPGSV,3,3,10,29,52,354,30,50,31,098,41*76
$GPGLL,0949.64979,N,07627.34133,E,105450.00,A,D*6A
$GPRMC,105451.00,A,0949.65235,N,07627.34094,E,8.849,350.46,260424,,,D*6D
$GPVTG,350.46,T,,M,8.849,N,16.389,K,D*04
$GPGGA,105451.00,0949.65235,N,07627.34094,E,2,06,2.26,29.7,M,-94.3,M,,0000*49
$GPGSA,A,3,10,23,05,29,13,15,,,,,,,3.78,2.26,3.04*07
$GPGSV,3,1,10,05,28,023,38,10,09,231,32,12,,,26,13,33,075,43*46
$GPGSV,3,2,10,15,63,110,38,23,37,250,32,24,,,36,25,46,221,32*46
$GPGSV,3,3,10,29,52,354,33,50,31,098,40*74
$GPGLL,0949.65235,N,07627.34094,E,105451.00,A,D*65
$GPRMC,105452.00,A,0949.65487,N,07627.34032,E,9.330,348.06,260424,,,D*64
$GPVTG,348.06,T,,M,9.330,N,17.280,K,D*04
$GPGGA,105452.00,0949.65487,N,07627.34032,E,2,06,2.26,29.6,M,-94.3,M,,0000*48
$GPGSA,A,3,10,23,05,29,13,15,,,,,,,3.78,2.26,3.04*07
$GPGSV,3,1,10,05,28,023,40,10,09,231,26,12,,,27,13,33,075,40*4E
$GPGSV,3,2,10,15,63,110,41,23,37,250,32,24,,,34,25,46,221,32*4A
$GPGSV,3,3,10,29,52,354,29,50,31,098,41*7E
$GPGLL,0949.65487,N,07627.34032,E,105452.00,A,D*65
$GPRMC,105453.00,A,0949.65749,N,07627.33996,E,9.269,349.34,260424,,,D*69
$GPVTG,349.34,T,,M,9.269,N,17.166,K,D*02
$GPGGA,105453.00,0949.65749,N,07627.33996,E,2,06,2.26,30.3,M,-94.3,M,,0000*45
$GPGSA,A,3,10,23,05,29,13,15,,,,,,,3.78,2.26,3.04*07
$GPGSV,3,1,10,05,28,023,40,10,09,231,26,12,,,27,13,33,075,41*4F
$GPGSV,3,2,10,15,63,110,39,23,37,250,31,24,,,31,25,46,221,32*43
$GPGSV,3,3,10,29,52,354,30,50,31,098,41*76
$GPGLL,0949.65749,N,07627.33996,E,105453.00,A,D*65
$GPRMC,105454.00,A,0949.66022,N,07627.33976,E,9.403,352.62,260424,,,D*6A
$GPVTG,352.62,T,,M,9.403,N,17.414,K,D*01
$GPGGA,105454.00,0949.66022,N,07627.33976,E,2,06,2.26,31.0,M,-94.3,M,,0000*47
$GPGSA,A,3,10,23,05,29,13,15,,,,,,,3.78,2.26,3.04*07
$GPGSV,3,1,11,05,28,023,38,10,09,231,32,12,,,28,13,33,075,43*49
$GPGSV,3,2,11,15,63,110,35,18,,,28,23,37,250,31,24,,,29*71
$GPGSV,3,3,11,25,46,221,31,29,52,354,32,50,31,098,41*43
$GPGLL,0949.66022,N,07627.33976,E,105454.00,A,D*65
$GPRMC,105455.00,A,0949.66290,N,07627.33921,E,9.696,351.82,260424,,,D*61
$GPVTG,351.82,T,,M,9.696,N,17.957,K,D*08
$GPGGA,105455.00,0949.66290,N,07627.33921,E,2,06,2.26,31.1,M,-94.3,M,,0000*4E
$GPGSA,A,3,10,23,05,29,13,15,,,,,,,3.78,2.26,3.04*07
$GPGSV,3,1,11,05,28,023,36,10,09,231,27,12,,,27,13,33,075,43*4C
$GPGSV,3,2,11,15,63,110,32,18,,,26,23,37,250,29,24,,,32*7B
$GPGSV,3,3,11,25,46,221,31,29,52,354,33,50,31,098,41*42
$GPGLL,0949.66290,N,07627.33921,E,105455.00,A,D*6D
$GPRMC,105456.00,A,0949.66554,N,07627.33870,E,9.594,348.93,260424,,,D*61
$GPVTG,348.93,T,,M,9.594,N,17.767,K,D*0C
$GPGGA,105456.00,0949.66554,N,07627.33870,E,2,06,2.26,31.4,M,-94.3,M,,0000*42
$GPGSA,A,3,10,23,05,29,13,15,,,,,,,3.78,2.26,3.04*07
$GPGSV,3,1,11,05,28,023,35,10,09,231,27,12,,,26,13,33,075,43*4E
$GPGSV,3,2,11,15,63,110,35,18,,,26,23,37,250,29,24,,,32*7C
$GPGSV,3,3,11,25,46,221,31,29,52,354,33,50,31,098,41*42
$GPGLL,0949.66554,N,07627.33870,E,105456.00,A,D*64
$GPRMC,105457.00,A,0949.66819,N,07627.33844,E,9.418,351.42,260424,,,D*62
$GPVTG,351.42,T,,M,9.418,N,17.442,K,D*09
$GPGGA,105457.00,0949.66819,N,07627.33844,E,2,06,2.26,32.1,M,-94.3,M,,0000*46
$GPGSA,A,3,10,23,05,29,13,15,,,,,,,3.78,2.26,3.04*07
$GPGSV,3,1,12,05,28,023,30,10,09,231,27,12,,,26,13,33,075,43*48
$GPGSV,3,2,12,15,63,110,32,18,,,25,22,,,27,23,37,250,29*79
$GPGSV,3,3,12,24,,,27,25,46,221,31,29,52,354,33,50,31,098,40*43
$GPGLL,0949.66819,N,07627.33844,E,105457.00,A,D*66
$GPRMC,105458.00,A,0949.67113,N,07627.33774,E,10.329,353.34,260424,,,D*5D
$GPVTG,353.34,T,,M,10.329,N,19.129,K,D*31
$GPGGA,105458.00,0949.67113,N,07627.33774,E,2,06,2.26,32.7,M,-94.3,M,,0000*41
$GPGSA,A,3,10,23,05,29,13,15,,,,,,,3.78,2.26,3.04*07
$GPGSV,3,1,12,05,28,023,34,10,09,231,27,12,,,27,13,33,075,41*4F
$GPGSV,3,2,12,15,63,110,37,18,,,25,22,,,24,23,37,250,29*7F
$GPGSV,3,3,12,24,,,32,25,46,221,31,29,52,354,32,50,31,098,40*46
$GPGLL,0949.67113,N,07627.33774,E,105458.00,A,D*67
$GPRMC,105459.00,A,0949.67418,N,07627.33711,E,10.852,352.83,260424,,,D*5B
$GPVTG,352.83,T,,M,10.852,N,20.098,K,D*3A
$GPGGA,105459.00,0949.67418,N,07627.33711,E,2,06,2.26,34.7,M,-94.3,M,,0000*4B
$GPGSA,A,3,10,23,05,29,13,15,,,,,,,3.79,2.26,3.04*06
$GPGSV,3,1,11,05,28,023,40,10,09,231,26,12,,,27,13,33,075,41*4E
$GPGSV,3,2,11,15,63,110,43,18,,,25,23,37,250,30,24,,,33*77
$GPGSV,3,3,11,25,46,221,30,29,52,354,27,50,31,098,42*45
$GPGLL,0949.67418,N,07627.33711,E,105459.00,A,D*6B
$GPRMC,105500.00,A,0949.67671,N,07627.33663,E,11.257,347.90,260424,,,D*57
$GPVTG,347.90,T,,M,11.257,N,20.848,K,D*37
$GPGGA,105500.00,0949.67671,N,07627.33663,E,2,06,2.26,34.1,M,-94.3,M,,0000*49
$GPGSA,A,3,10,23,05,29,13,15,,,,,,,3.79,2.26,3.04*06
$GPGSV,3,1,12,05,28,023,40,10,09,231,26,12,,,27,13,33,075,42*4E
$GPGSV,3,2,12,15,63,110,44,18,,,25,22,,,24,23,37,250,30*73
$GPGSV,3,3,12,24,,,33,25,46,221,29,29,52,354,27,50,31,098,38*45
$GPGLL,0949.67671,N,07627.33663,E,105500.00,A,D*6F
$GPRMC,105501.00,A,0949.67948,N,07627.33632,E,11.257,347.37,260424,,,D*5A
$GPVTG,347.37,T,,M,11.257,N,20.849,K,D*3B
$GPGGA,105501.00,0949.67948,N,07627.33632,E,2,06,2.26,33.8,M,-94.3,M,,0000*47
$GPGSA,A,3,10,23,05,29,13,15,,,,,,,3.79,2.26,3.04*06
$GPGSV,3,1,12,05,28,023,39,10,09,231,27,12,,,26,13,33,075,40*42
$GPGSV,3,2,12,15,63,110,43,18,,,25,22,,,22,23,37,250,30*72
$GPGSV,3,3,12,24,,,32,25,46,221,28,29,52,354,27,50,31,098,40*4A
$GPGLL,0949.67948,N,07627.33632,E,105501.00,A,D*6F
$GPRMC,105502.00,A,0949.68279,N,07627.33578,E,11.390,348.85,260424,,,D*5E
$GPVTG,348.85,T,,M,11.390,N,21.093,K,D*39
$GPGGA,105502.00,0949.68279,N,07627.33578,E,2,06,2.26,34.7,M,-94.3,M,,0000*47
$GPGSA,A,3,10,23,05,29,13,15,,,,,,,3.79,2.26,3.04*06
$GPGSV,3,1,12,05,28,023,38,10,09,231,27,12,,,26,13,33,075,41*42
$GPGSV,3,2,12,15,63,110,41,18,,,24,22,,,21,23,37,250,30*72
$GPGSV,3,3,12,24,,,32,25,46,221,27,29,52,354,26,50,31,098,38*4B
$GPGLL,0949.68279,N,07627.33578,E,105502.00,A,D*67
$GPRMC,105503.00,A,0949.68611,N,07627.33498,E,11.969,348.52,260424,,,D*5C
$GPVTG,348.52,T,,M,11.969,N,22.167,K,D*36
$GPGGA,105503.00,0949.68611,N,07627.33498,E,2,06,2.26,35.0,M,-94.3,M,,0000*45
$GPGSA,A,3,10,23,05,29,13,15,,,,,,,3.79,2.26,3.04*06
$GPGSV,3,1,11,05,28,023,38,10,09,231,27,12,,,26,13,33,075,42*42
$GPGSV,3,2,11,15,63,110,42,18,,,25,23,37,250,31,24,,,32*76
$GPGSV,3,3,11,25,46,221,27,29,52,354,26,50,31,098,41*41
$GPGLL,0949.68611,N,07627.33498,E,105503.00,A,D*63
$GPRMC,105504.00,A,0949.68945,N,07627.33423,E,12.265,348.77,260424,,,D*56
$GPVTG,348.77,T,,M,12.265,N,22.715,K,D*36
$GPGGA,105504.00,0949.68945,N,07627.33423,E,2,06,2.26,35.0,M,-94.3,M,,0000*4C
$GPGSA,A,3,10,23,05,29,13,15,,,,,,,3.79,2.26,3.04*06
$GPGSV,3,1,11,05,28,023,33,10,09,231,26,12,,,25,13,33,075,42*4B
$GPGSV,3,2,11,15,63,110,40,18,,,24,23,37,250,30,24,,,31*77
$GPGSV,3,3,11,25,46,221,27,29,52,354,27,50,31,098,41*40
$GPGLL,0949.68945,N,07627.33423,E,105504.00,A,D*6A
$GPRMC,105505.00,A,0949.69297,N,07627.33345,E,12.911,347.97,260424,,,D*5C
$GPVTG,347.97,T,,M,12.911,N,23.911,K,D*34
$GPGGA,105505.00,0949.69297,N,07627.33345,E,2,06,2.26,35.4,M,-94.3,M,,0000*4B
$GPGSA,A,3,10,23,05,29,13,15,,,,,,,3.79,2.26,3.04*06
$GPGSV,3,1,11,05,28,023,24,10,09,231,26,12,,,24,13,33,075,40*4E
$GPGSV,3,2,11,15,63,110,35,18,,,23,23,37,250,30,24,,,32*71
$GPGSV,3,3,11,25,46,221,28,29,52,354,27,50,31,098,41*4F
$GPGLL,0949.69297,N,07627.33345,E,105505.00,A,D*69
$GPRMC,105506.00,A,0949.69534,N,07627.33310,E,9.236,347.18,260424,,,D*62
$GPVTG,347.18,T,,M,9.236,N,17.105,K,D*0D
$GPGGA,105506.00,0949.69534,N,07627.33310,E,2,06,2.26,35.7,M,-94.3,M,,0000*45
